{"version": 0.6, "generator": "Overpass API 0.7.59.5 b201bb38", "osm3s": {"timestamp_osm_base": "2023-04-20T17:23:09Z", "copyright": "The data included in this document is from www.openstreetmap.org. The data is made available under ODbL."}, "elements": [{"type": "node", "id": 451152, "lat": 51.6008404, "lon": -0.1946078, "tags": {"addr:city": "London", "addr:housename": "King of Prussia", "addr:housenumber": "363", "addr:postcode": "N3 1DH", "addr:street": "Regents Park Road", "amenity": "pub", "cuisine": "pizza;burger", "diet:gluten_free": "yes", "diet:meat": "yes", "diet:vegan": "yes", "diet:vegetarian": "yes", "food": "yes", "internet_access": "wlan", "name": "King of Prussia", "opening_hours:covid19": "open", "operator": "Mitchells & Butlers", "outdoor_seating": "yes", "payment:american_express": "yes", "payment:contactless": "yes", "payment:credit_cards": "yes", "payment:debit_cards": "yes", "payment:maestro": "yes", "payment:mastercard": "yes", "payment:visa": "yes", "smoking": "outside", "toilets": "yes", "toilets:access": "customers"}}, {"type": "node", "id": 451154, "lat": 51.5995788, "lon": -0.196028, "tags": {"addr:housenumber": "319", "addr:street": "Regents Park Road", "amenity": "pub", "food": "yes", "name": "The Catcher in the Rye", "real_ale": "3"}}, {"type": "node", "id": 451271, "lat": 51.6141038, "lon": -0.1765556, "tags": {"addr:city": "London", "addr:country": "GB", "addr:housenumber": "749", "addr:street": "High Road", "amenity": "pub", "brand": "Wetherspoon", "brand:wikidata": "Q6109362", "brand:wikipedia": "en:Wetherspoons", "indoor_seating": "yes", "name": "The Tally Ho", "outdoor_seating": "yes", "website": "http://www.jdwetherspoon.co.uk/home/pubs/the-tally-ho", "wikidata": "Q24298976"}}, {"type": "node", "id": 12242503, "lat": 51.5920158, "lon": 0.0279621, "tags": {"amenity": "pub", "name": "Railway Bell", "real_ale": "yes", "toilets": "yes", "toilets:access": "customers"}}, {"type": "node", "id": 12243302, "lat": 51.5759872, "lon": 0.0282186, "tags": {"addr:city": "London", "addr:postcode": "E11 2RL", "addr:street": "High Street", "amenity": "pub", "brand": "Wetherspoon", "brand:wikidata": "Q6109362", "brand:wikipedia": "en:Wetherspoons", "fhrs:id": "443368", "fhrs:local_authority_id": "155360", "food": "yes", "name": "The George", "real_ale": "yes", "source:addr": "FHRS Open Data", "wheelchair": "yes", "wikidata": "Q88916722"}}, {"type": "node", "id": 15262026, "lat": 51.5181558, "lon": -0.1698786}, {"type": "node", "id": 15262028, "lat": 51.5164813, "lon": -0.1698266, "tags": {"addr:city": "London", "addr:housenumber": "30", "addr:postcode": "W2 1JQ", "addr:street": "Southwick Street", "ale": "yes", "amenity": "pub", "brand": "Hall & Woodhouse", "brand:wikidata": "Q5642555", "brand:wikipedia": "en:Hall & Woodhouse", "brewery": "yes", "check_date": "2022-10-04", "diet:vegetarian": "yes", "email": "gary@themonkeypuzzlepub.co.uk", "food": "yes", "indoor_seating": "yes", "name": "The Monkey Puzzle", "opening_hours": "Mo-Su 11:00-23:00", "operator": "Hall & Woodhouse", "outdoor_seating": "yes", "payment:credit_cards": "yes", "payment:debit_cards": "yes", "payment:mastercard": "yes", "payment:visa": "yes", "phone": "+44 20 7723 0143", "real_fire": "no", "smoking": "outside", "source": "survey", "toilets": "yes", "toilets:access": "customers", "website": "http://themonkeypuzzlepub.co.uk", "wheelchair": "limited"}}, {"type": "node", "id": 18235090, "lat": 51.4628591, "lon": -0.2266975, "tags": {"addr:city": "London", "addr:housenumber": "289", "addr:postcode": "SW15 6SP", "addr:street": "Upper Richmond Road", "amenity": "pub", "fhrs:id": "297470", "name": "The Arab Boy", "operator": "Greene King", "source:addr": "FHRS Open Data"}}, {"type": "node", "id": 20821133, "lat": 51.5004234, "lon": -0.1777428, "tags": {"amenity": "pub", "name": "The Union Bar"}}, {"type": "node", "id": 20973312, "lat": 51.4691887, "lon": -0.2100687, "tags": {"addr:housenumber": "425", "addr:postcode": "SW6 4RN", "addr:street": "New King's Road", "amenity": "pub", "dog": "yes", "name": "Kings Arms", "operator": "Wadworth", "website": "https://www.kingsarms-fulham.co.uk/", "wheelchair": "limited"}}, {"type": "node", "id": 20973316, "lat": 51.4727261, "lon": -0.1811598, "tags": {"amenity": "pub", "name": "The Waterside", "outdoor_seating": "yes", "wheelchair": "yes"}}, {"type": "node", "id": 21310453, "lat": 51.4862884, "lon": -0.1217135}, {"type": "node", "id": 21585739, "lat": 51.5083272, "lon": -0.3419109, "tags": {"entrance": "yes"}}, {"type": "node", "id": 21593231, "lat": 51.5149566, "lon": -0.1134203}, {"type": "node", "id": 21593236, "lat": 51.5172349, "lon": -0.1192033, "tags": {"addr:city": "London", "addr:country": "GB", "addr:housenumber": "12", "addr:postcode": "WC2A 3HP", "addr:street": "Gate Street", "amenity": "pub", "check_date": "2023-04-18", "contact:email": "info@theshiptavern.co.uk", "contact:phone": "+44 20 7405 1992", "diet:vegetarian": "yes", "fhrs:id": "423859", "fhrs:local_authority_id": "13830", "food": "yes", "name": "Ship Tavern", "outdoor_seating": "no", "real_ale": "yes", "smoking": "no", "wikidata": "Q7497944", "wikipedia": "en:Ship Tavern, Holborn"}}, {"type": "node", "id": 21665928, "lat": 51.5137016, "lon": -0.1394579}, {"type": "node", "id": 21685496, "lat": 51.5163219, "lon": -0.1017651}, {"type": "node", "id": 21686579, "lat": 51.5154029, "lon": -0.1043348, "tags": {"addr:city": "London", "addr:housenumber": "17", "addr:postcode": "EC4A 4AB", "addr:street": "Farringdon Street", "amenity": "pub", "fhrs:id": "1097476", "name": "White Haus", "source:addr": "FHRS Open Data", "wheelchair": "yes"}}, {"type": "node", "id": 25306553, "lat": 51.4952674, "lon": -0.1378618}, {"type": "node", "id": 25307015, "lat": 51.4923919, "lon": -0.1395984}, {"type": "node", "id": 25471087, "lat": 51.5128467, "lon": -0.1212167, "tags": {"addr:city": "London", "addr:housenumber": "39", "addr:street": "Bow Street", "amenity": "pub", "brand": "Young's", "brand:wikidata": "Q8057802", "brand:wikipedia": "en:Young's", "name": "Marquess of Anglesey", "operator": "Young's", "outdoor_seating": "roof", "website": "http://www.themarquess.co.uk/"}}, {"type": "node", "id": 25472660, "lat": 51.4548785, "lon": -0.3409928}, {"type": "node", "id": 25472799, "lat": 51.5263136, "lon": -0.1114121}, {"type": "node", "id": 25473538, "lat": 51.509731, "lon": -0.0785318, "tags": {"addr:city": "London", "addr:housenumber": "15", "addr:postcode": "EC3N 4AA", "addr:street": "Trinity Square", "amenity": "pub", "brand": "Wetherspoon", "brand:wikidata": "Q6109362", "fhrs:id": "294245", "foot": "yes", "name": "The Liberty Bounds", "operator": "JD Weatherspoon", "toilets": "yes", "toilets:access": "customers", "wikidata": "Q88965892"}}, {"type": "node", "id": 25475187, "lat": 51.5114165, "lon": -0.0776978, "tags": {"addr:city": "London", "addr:housenumber": "48", "addr:postcode": "EC3N 2AP", "addr:street": "Crutched Friars", "amenity": "pub", "fhrs:authority": "City of London Corporation", "fhrs:id": "294974", "fhrs:local_authority_id": "PI/000019691", "name": "The Cheshire Cheese", "outdoor_seating": "no", "source:addr": "FHRS Open Data", "wheelchair": "yes"}}, {"type": "node", "id": 25475743, "lat": 51.5231454, "lon": -0.1190101}, {"type": "node", "id": 25475914, "lat": 51.5210868, "lon": -0.1227561, "tags": {"amenity": "pub", "name": "The Swan", "toilets": "yes", "toilets:access": "customers"}}, {"type": "node", "id": 25495429, "lat": 51.5233926, "lon": -0.10817}, {"type": "node", "id": 25496621, "lat": 51.5142789, "lon": -0.1072314}, {"type": "node", "id": 25497831, "lat": 51.5239824, "lon": -0.1156647}, {"type": "node", "id": 25501630, "lat": 51.5284488, "lon": -0.1233084, "tags": {"addr:city": "London", "addr:housenumber": "1-5", "addr:postcode": "WC1H 8ET", "addr:street": "Whidborne Street", "amenity": "pub", "fhrs:id": "426366", "food": "yes", "indoor_seating": "yes", "name": "McGlynn's", "outdoor_seating": "yes", "payment:credit_cards": "yes", "payment:debit_cards": "yes", "source:addr": "FHRS Open Data"}}, {"type": "node", "id": 25502496, "lat": 51.4864142, "lon": -0.121759}, {"type": "node", "id": 25503596, "lat": 51.5197242, "lon": -0.1060506}, {"type": "node", "id": 25503622, "lat": 51.5197332, "lon": -0.106338}, {"type": "node", "id": 25504104, "lat": 51.5183773, "lon": -0.107433}, {"type": "node", "id": 25505570, "lat": 51.518716, "lon": -0.1358605}, {"type": "node", "id": 25510381, "lat": 51.499414, "lon": -0.1139889, "tags": {"addr:housenumber": "133-135", "addr:postcode": "SE1 7HR", "addr:street": "Westminster Bridge Road", "amenity": "pub", "fhrs:authority": "Lambeth", "fhrs:id": "606768", "fhrs:inspectiondate": "2013-10-31", "fhrs:rating": "5", "name": "Crown & Cushion", "wheelchair": "no"}}, {"type": "node", "id": 25523569, "lat": 51.4053384, "lon": 0.0034181, "tags": {"addr:city": "Bromley", "addr:postcode": "BR2 0EY", "addr:street": "Station Road", "addr:suburb": "Shortlands", "amenity": "pub", "check_date": "2022-10-02", "email": "shortlandstavern@live.co.uk", "fhrs:id": "765062", "name": "Shortlands Tavern", "opening_hours": "12:00-23:00", "payment:mastercard": "yes", "payment:visa": "yes", "phone": "+44 20 8466 0202", "source:addr": "FHRS Open Data", "website": "https://www.shortlandstavern.co.uk/"}}, {"type": "node", "id": 25524219, "lat": 51.3803526, "lon": -0.0133037, "tags": {"amenity": "pub", "name": "The Railway"}}, {"type": "node", "id": 25534171, "lat": 51.5397949, "lon": -0.1877624, "tags": {"addr:housenumber": "121", "addr:postcode": "NW6 4SL", "addr:street": "Abbey Road", "amenity": "pub", "former_name": "The Cricketers", "name": "The Lillie Langtry", "note": "Pub part of Emminster building.", "old_name": "Princess of Wales", "operator": "Greene King", "toilets": "yes", "toilets:access": "customers"}}, {"type": "node", "id": 25534172, "lat": 51.5383682, "lon": -0.1911536}, {"type": "node", "id": 25536113, "lat": 51.5697144, "lon": -0.1285763}, {"type": "node", "id": 25592547, "lat": 51.5089598, "lon": -0.3385051, "tags": {"addr:city": "London", "addr:housenumber": "161", "addr:postcode": "W7 3SP", "addr:street": "Uxbridge Road", "addr:suburb": "Hanwell", "amenity": "pub", "fhrs:id": "1033359", "name": "The Duke of York", "source:addr": "FHRS Open Data", "toilets": "yes", "toilets:access": "customers"}}, {"type": "node", "id": 25597580, "lat": 51.5344323, "lon": -0.1087008, "tags": {"addr:street": "Tolpuddle Street", "amenity": "pub", "name": "The Islington", "previous_name": "The Grande", "toilets": "yes", "toilets:access": "customers", "wikidata": "Q19462549"}}, {"type": "node", "id": 25597628, "lat": 51.5347892, "lon": -0.1072883, "tags": {"addr:city": "London", "addr:housenumber": "57", "addr:postcode": "N1 0RJ", "addr:street": "Liverpool Road", "amenity": "pub", "fhrs:id": "416973", "name": "The Angelic", "source:addr": "FHRS Open Data"}}, {"type": "node", "id": 25717653, "lat": 51.5780132, "lon": -0.0990941, "tags": {"amenity": "pub", "name": "The Old Ale Emporium", "wheelchair": "limited"}}, {"type": "node", "id": 25717655, "lat": 51.5763738, "lon": -0.0987516, "tags": {"amenity": "pub", "fhrs:id": "548124", "name": "The Beaconsfield"}}, {"type": "node", "id": 25717656, "lat": 51.5718163, "lon": -0.0965045}, {"type": "node", "id": 25722373, "lat": 51.6832719, "lon": -0.1002905}, {"type": "node", "id": 25729218, "lat": 51.4534062, "lon": -0.038511, "tags": {"addr:city": "London", "addr:housename": "the brockley jack", "addr:housenumber": "408-410", "addr:postcode": "SE4 2DH", "addr:street": "Brockley Road", "addr:suburb": "Crofton Park", "amenity": "pub", "check_date": "2023-04-08", "cuisine": "international", "fhrs:id": "1598737", "fhrs:local_authority_id": "PI/000024249", "level": "0", "name": "The Brockley Jack", "outdoor_seating": "yes", "payment:credit_cards": "yes", "payment:debit_cards": "yes", "payment:mastercard": "yes", "payment:visa": "yes", "source:addr": "FHRS Open Data", "takeaway": "no", "wheelchair": "yes"}}, {"type": "node", "id": 25744229, "lat": 51.5579338, "lon": -0.1792476}, {"type": "node", "id": 25744452, "lat": 51.566304, "lon": -0.1368747}, {"type": "node", "id": 25744507, "lat": 51.5566538, "lon": -0.1383959, "tags": {"addr:city": "London Borough of Camden", "addr:housenumber": "156-158", "addr:postcode": "NW5 2HP", "addr:street": "Fortess Road", "amenity": "pub", "fhrs:id": "653514", "name": "Aces and Eights", "website": "http://www.acesandeightssaloonbar.com/", "wheelchair": "no"}}, {"type": "node", "id": 25746185, "lat": 51.5123895, "lon": -0.1131849, "tags": {"addr:city": "London", "addr:postcode": "WC2R 3LD", "amenity": "pub", "fhrs:confidence_management": "10", "fhrs:hygiene": "10", "fhrs:id": "412472", "fhrs:local_authority_id": "00842/0005/0/000", "fhrs:rating": "3", "fhrs:structural": "10", "food": "yes", "name": "The Cheshire Cheese", "phone": "+44 20 7836 2347", "real_ale": "yes", "smoking": "no", "toilets": "yes", "toilets:access": "customers", "wikidata": "Q27087707"}}, {"type": "node", "id": 25778570, "lat": 51.5369705, "lon": -0.1920297}, {"type": "node", "id": 25808165, "lat": 51.5487646, "lon": -0.1295128}, {"type": "node", "id": 25823329, "lat": 51.5395423, "lon": -0.1422626}, {"type": "node", "id": 25879299, "lat": 51.5206598, "lon": -0.0980972}, {"type": "node", "id": 25894197, "lat": 51.5585844, "lon": -0.1177642}, {"type": "node", "id": 26065903, "lat": 51.5645126, "lon": -0.104466, "tags": {"addr:city": "London Borough of Islington", "addr:housenumber": "284", "addr:postcode": "N4 2HY", "addr:street": "Seven Sisters Road", "amenity": "pub", "email": "info@blackstockpub.com", "name": "The BlackStock", "opening_hours": "Mo-Th 14:00-24:00; Fr 14:00-24:00; Sa 00:00-02:00,11:00-24:00; Su 00:00-02:00,11:00-24:00", "phone": "+44 20 7561 1337"}}, {"type": "node", "id": 26197017, "lat": 51.5693773, "lon": -0.1126397, "tags": {"amenity": "pub", "name": "The White Lion of Mortimer"}}, {"type": "node", "id": 26310696, "lat": 51.536675, "lon": -0.1031148, "tags": {"addr:city": "London", "addr:housenumber": "1", "addr:postcode": "N1 2XH", "addr:street": "Islington Green", "alt_name": "The Slug", "amenity": "pub", "fhrs:id": "416888", "indoor_seating": "yes", "name": "Fox on the Green", "operator": "Slug and Lettuce", "outdoor_seating": "yes", "source:addr": "FHRS Open Data", "wikidata": "Q17020568"}}, {"type": "node", "id": 26363049, "lat": 51.6419852, "lon": -0.2424157, "tags": {"alt_name": "The Gate Public House", "amenity": "pub", "name": "The Gate", "toilets": "yes"}}, {"type": "node", "id": 26425138, "lat": 51.5258156, "lon": -0.0996475}, {"type": "node", "id": 26461817, "lat": 51.388954, "lon": -0.1591535}, {"type": "node", "id": 26462174, "lat": 51.3783888, "lon": -0.1575544}, {"type": "node", "id": 26545063, "lat": 51.4017392, "lon": -0.1608521, "tags": {"amenity": "pub", "name": "The Windmill"}}, {"type": "node", "id": 26545687, "lat": 51.399294, "lon": -0.1652315, "tags": {"addr:city": "Mitcham", "addr:housenumber": "70", "addr:postcode": "CR4 4LA", "addr:street": "Cricket Green", "amenity": "pub", "fhrs:id": "430958", "name": "The Queens Head", "toilets": "yes", "toilets:access": "customers"}}, {"type": "node", "id": 26603473, "lat": 51.5362404, "lon": -0.4763331, "tags": {"addr:city": "Uxbridge", "addr:housenumber": "33", "addr:postcode": "UB8 2PU", "addr:street": "Villier Street", "amenity": "pub", "name": "The Load of Hay", "opening_hours": "Mo-Fr 15:00-23:30; Sa-Su 12:00-23:30", "phone": "+44 1895 254780", "website": "http://theloadofhay.com/"}}, {"type": "node", "id": 26603929, "lat": 51.5310186, "lon": -0.4820512, "tags": {"addr:postcode": "UB8 2NL", "addr:street": "High Street", "amenity": "pub", "name": "The Crown", "opening_hours": "Mo-Su 12:00-22:00", "phone": "+44 1895 473713", "wikidata": "Q16988250"}}, {"type": "node", "id": 26609946, "lat": 51.5127517, "lon": -0.0376105}, {"type": "node", "id": 26610585, "lat": 51.5377753, "lon": -0.144383}, {"type": "node", "id": 26610587, "lat": 51.5393745, "lon": -0.1446311, "tags": {"addr:housenumber": "30", "addr:street": "Inverness Street", "amenity": "pub", "historic": "monument", "name": "The Good Mixer"}}, {"type": "node", "id": 26610590, "lat": 51.5405479, "lon": -0.1443341, "tags": {"addr:city": "London", "addr:housenumber": "265", "addr:postcode": "NW1 7BU", "addr:street": "Camden High Street", "amenity": "pub", "contact:facebook": "oxfordarms", "contact:instagram": "explore/locations/227378938", "contact:twitter": "oxfordarms", "internet_access": "wlan", "name": "The Oxford Arms", "opening_hours": "Fr-Sa 12:00-02:00; Su-Th 12:00-01:00", "phone": "+44 20 7267 4945", "source:addr": "FSA Food Hygiene Rating Scheme open data", "toilets": "yes", "toilets:access": "customers", "website": "https://oxfordarmscamden.co.uk", "wheelchair": "limited"}}, {"type": "node", "id": 26671973, "lat": 51.5112678, "lon": -0.1313549}, {"type": "node", "id": 26699548, "lat": 51.5134466, "lon": -0.1297345}, {"type": "node", "id": 26699550, "lat": 51.5135259, "lon": -0.1294734}, {"type": "node", "id": 26699553, "lat": 51.5145576, "lon": -0.1311276}, {"type": "node", "id": 26699558, "lat": 51.5165109, "lon": -0.1307587, "tags": {"amenity": "pub", "brand": "Nicholson's", "brand:wikidata": "Q113130666", "food": "yes", "name": "The Flying Horse", "old_name": "The Tottenham", "opening_hours": "Mo-Sa 11:00-23:00; Su 12:00-22:30", "real_ale": "yes", "wikidata": "Q16707773"}}, {"type": "node", "id": 26816171, "lat": 51.5212227, "lon": -0.1018479}, {"type": "node", "id": 26819164, "lat": 51.5160907, "lon": -0.1877793}, {"type": "node", "id": 26845550, "lat": 51.5138365, "lon": -0.1350605}, {"type": "node", "id": 26845554, "lat": 51.5140425, "lon": -0.1342915}, {"type": "node", "id": 26845556, "lat": 51.5123402, "lon": -0.1330222}, {"type": "node", "id": 26845557, "lat": 51.5118867, "lon": -0.134768}, {"type": "node", "id": 26846366, "lat": 51.511823, "lon": -0.1281127}, {"type": "node", "id": 26848690, "lat": 51.5168313, "lon": -0.1197204}, {"type": "node", "id": 26866988, "lat": 51.5149215, "lon": -0.1351856}, {"type": "node", "id": 26866989, "lat": 51.5148695, "lon": -0.137356}, {"type": "node", "id": 26866993, "lat": 51.5128697, "lon": -0.1321966}, {"type": "node", "id": 26979398, "lat": 51.5459392, "lon": -0.4799811, "tags": {"addr:housenumber": "54", "addr:postcode": "UB8 1AB", "addr:street": "Windsor Street", "amenity": "pub", "name": "Queen's Head", "phone": "+44 1895 258750", "website": "https://www.greeneking-pubs.co.uk/pubs/middlesex/queens-head/", "wikidata": "Q17018369"}}, {"type": "node", "id": 26979399, "lat": 51.5454596, "lon": -0.4800154, "tags": {"addr:housenumber": "8,9", "addr:postcode": "UB8 1AB", "addr:street": "Windsor Street", "amenity": "pub", "name": "The Metropolitan", "opening_hours": "Mo-Fr 10:00-22:00; Sa-Su 12:00-22:00", "phone": "+44 1895 230031", "website": "https://www.greatukpubs.co.uk/metropolitan-tavern-uxbridge"}}, {"type": "node", "id": 26979400, "lat": 51.5455668, "lon": -0.4802997, "tags": {"addr:housenumber": "49", "addr:postcode": "UB8 1AB", "addr:street": "Windsor Street", "amenity": "pub", "name": "The Fig Tree", "opening_hours": "Mo-Th 11:00-23:00; Fr-Sa 11:00-01:00; Su 12:00-23:00", "phone": "+44 1895 257932", "website": "https://www.greeneking-pubs.co.uk/pubs/middlesex/fig-tree/"}}, {"type": "node", "id": 26979401, "lat": 51.5476493, "lon": -0.4806061, "tags": {"amenity": "pub", "name": "Whelans", "toilets": "yes", "toilets:access": "customers"}}, {"type": "node", "id": 26979403, "lat": 51.5455131, "lon": -0.4785907, "tags": {"amenity": "pub", "created_by": "Potlatch 0.4a", "name": "The Three Tuns", "wikidata": "Q17022824"}}, {"type": "node", "id": 26980235, "lat": 51.6630788, "lon": -0.0854123, "tags": {"amenity": "pub", "name": "The Wonder", "opening_hours": "Mo-Th 11:00-23:00; Su 12:00-23:00; Fr,Sa 11:00-24:00"}}, {"type": "node", "id": 26980277, "lat": 51.6587699, "lon": -0.0875704}, {"type": "node", "id": 26982478, "lat": 51.6781721, "lon": -0.0593586, "tags": {"addr:postcode": "EN2 9HE", "amenity": "pub", "name": "The Pied Bull", "wikidata": "Q26350046"}}, {"type": "node", "id": 26982535, "lat": 51.6813611, "lon": -0.0770974, "tags": {"amenity": "pub", "name": "The King and Tinker", "toilets": "yes", "toilets:access": "customers", "wikidata": "Q26484378"}}, {"type": "node", "id": 26992533, "lat": 51.4455382, "lon": -0.044651, "tags": {"amenity": "pub", "name": "General Napier"}}, {"type": "node", "id": 26992933, "lat": 51.4432329, "lon": -0.0422998, "tags": {"addr:city": "London", "addr:housename": "St Germains Hotel", "addr:housenumber": "1", "addr:postcode": "SE23 1RH", "addr:street": "St Germans Road", "amenity": "pub", "contact:instagram": "thehonoroakpub", "email": "hello@honoroak.pub", "fhrs:id": "1599832", "lgbtq": "welcome", "name": "The Honor Oak", "opening_hours": "Su-Th 12:00-23:00; Fr-Sa 12:00-25:00", "opening_hours:kitchen": "Mo-Sa 12:00-22:00", "website": "https://www.honoroak.pub/", "website:menu": "https://www.honoroak.pub/menu", "wheelchair": "yes"}}, {"type": "node", "id": 26997956, "lat": 51.4642227, "lon": -0.0364906}, {"type": "node", "id": 27012806, "lat": 51.5432581, "lon": -0.1034131, "tags": {"addr:city": "London", "addr:housename": "Hope & Anchor", "addr:housenumber": "207", "addr:postcode": "N1 1RL", "addr:street": "Upper Street", "addr:suburb": "Islington", "amenity": "pub", "fhrs:id": "417154", "name": "The Hope and Anchor", "opening_hours": "Mo-Th 12:00-23:00; Fr-Sa 12:00-01:00; Su 12:00-23:00", "outdoor_seating": "yes", "smoking": "outside", "source:addr": "FHRS Open Data", "toilets": "yes", "toilets:access": "customers", "wikidata": "Q15225054", "wikipedia": "en:Hope and Anchor, Islington"}}, {"type": "node", "id": 27017235, "lat": 51.5234117, "lon": -0.1618602, "tags": {"amenity": "pub", "name": "Sir John Balcombe", "toilets": "yes", "toilets:access": "customers"}}, {"type": "node", "id": 27245287, "lat": 51.465564, "lon": -0.299238, "tags": {"addr:city": "Richmond", "addr:housenumber": "121-123", "addr:postcode": "TW9 2PN", "addr:street": "Kew Road", "amenity": "pub", "fhrs:id": "353351", "name": "The Shaftesbury Arms", "source:addr": "FHRS Open Data", "source:name": "FHRS Open Data"}}, {"type": "node", "id": 27348272, "lat": 51.6536688, "lon": -0.0895233}, {"type": "node", "id": 27348824, "lat": 51.671207, "lon": -0.083777, "tags": {"amenity": "pub", "name": "Rose and Crown", "opening_hours": "Mo-Sa 12:00-23:00; Su 12:00-22:30", "operator": "British Waterways/Scottish", "toilets": "yes", "toilets:access": "customers", "wikidata": "Q26352471"}}, {"type": "node", "id": 27349206, "lat": 51.656505, "lon": -0.0874147, "tags": {"amenity": "pub", "name": "Cricketers Arms", "opening_hours:signed": "no", "wheelchair": "yes"}}, {"type": "node", "id": 27359488, "lat": 51.5777484, "lon": 0.2079489, "tags": {"amenity": "pub", "created_by": "YahooApplet 1.0", "name": "The Drill"}}, {"type": "node", "id": 27364392, "lat": 51.5783459, "lon": -0.0818517, "tags": {"amenity": "pub", "name": "Woodberry Tavern", "toilets": "yes", "toilets:access": "customers"}}, {"type": "node", "id": 27408323, "lat": 51.5116826, "lon": -0.3051555, "tags": {"addr:city": "London", "addr:housenumber": "24-25", "addr:postcode": "W5 5DB", "addr:street": "High Street", "amenity": "pub", "fhrs:id": "1032609", "food": "yes", "name": "The Drapers Arms", "source:addr": "FHRS Open Data"}}, {"type": "node", "id": 27411557, "lat": 51.5646374, "lon": -0.1217505, "tags": {"amenity": "pub", "description": "formely 'The Pink Chameleon'", "name": "North Nineteen", "opening_hours": "Mo-Th 16:00-12:00, Fr 16:00-01:00", "toilets": "yes", "toilets:access": "customers", "wheelchair": "limited"}}, {"type": "node", "id": 27413864, "lat": 51.5600598, "lon": -0.1150603}, {"type": "node", "id": 27431704, "lat": 51.5279706, "lon": -0.0198944}, {"type": "node", "id": 27475739, "lat": 51.5102956, "lon": -0.3052313, "tags": {"amenity": "pub", "beer_garden": "yes", "level": "0", "name": "The Grove", "outdoor_seating": "yes", "real_ale": "yes", "toilets": "yes", "toilets:access": "customers"}}, {"type": "node", "id": 27475983, "lat": 51.5080196, "lon": -0.3050181, "tags": {"amenity": "pub", "beer_garden": "yes", "name": "The Red Lion"}}, {"type": "node", "id": 27476034, "lat": 51.5061889, "lon": -0.3053344, "tags": {"addr:city": "London", "addr:housename": "The Castle", "addr:housenumber": "36", "addr:postcode": "W5 5EU", "addr:street": "St Marys Road", "addr:suburb": "Ealing", "amenity": "pub", "beer_garden": "yes", "fhrs:id": "1032681", "name": "The Castle Inn", "source:addr": "FHRS Open Data"}}, {"type": "node", "id": 27476983, "lat": 51.5148399, "lon": -0.302661, "tags": {"amenity": "pub", "name": "The Shanakee", "toilets": "yes", "toilets:access": "customers", "wheelchair": "no"}}, {"type": "node", "id": 27476990, "lat": 51.5138717, "lon": -0.3018562, "tags": {"amenity": "pub", "food": "yes", "name": "The North Star", "note": "Great Young Pub", "wheelchair": "yes"}}, {"type": "node", "id": 27477157, "lat": 51.5169211, "lon": -0.299932, "tags": {"addr:city": "London", "addr:housenumber": "41", "addr:postcode": "W5 2HZ", "addr:street": "Haven Lane", "ale": "yes", "amenity": "pub", "email": "wheatsheaf@fullers.co.uk", "fhrs:id": "1032516", "fixme:place": "Ealing", "name": "The Wheatsheaf", "operator": "Fuller's", "phone": "+44 20 8997 5240", "source:addr": "FHRS Open Data", "website": "https://wheatsheaf-ealing.co.uk/"}}, {"type": "node", "id": 27477159, "lat": 51.5168303, "lon": -0.3000951, "tags": {"addr:city": "London", "addr:housename": "Haven Arms", "addr:housenumber": "33", "addr:postcode": "W5 2HZ", "addr:street": "Haven Lane", "amenity": "pub", "facebook": "Havenarms", "fhrs:id": "1033730", "fixme:place": "Ealing", "name": "The Haven Arms", "phone": "+44 20 8997 0378", "source:addr": "FHRS Open Data", "toilets": "yes", "toilets:access": "customers", "twitter": "HavenArms", "website": "http://www.thehavenarms.co.uk/"}}, {"type": "node", "id": 27512718, "lat": 51.4776729, "lon": -0.1833426, "tags": {"addr:housenumber": "114", "addr:street": "Lots Road", "amenity": "pub", "contact:facebook": "https://www.facebook.com/lotsroadpub/", "contact:instagram": "lotsroadpub", "contact:twitter": "lotsroadpub", "internet_access": "wlan", "internet_access:fee": "no", "name": "Lots Road", "opening_hours": "Mo-Sa 12:00-23:00; Su 12:00-22:00", "phone": "+44 20 7352 6645", "website": "https://lotsroadchelsea.co.uk/", "wheelchair": "yes"}}, {"type": "node", "id": 27718642, "lat": 51.4984423, "lon": -0.155855, "tags": {"addr:city": "London", "addr:housenumber": "6", "addr:postcode": "SW1X 8HT", "addr:street": "Belgrave Mews West", "amenity": "pub", "fhrs:confidence_management": "0", "fhrs:hygiene": "0", "fhrs:id": "427688", "fhrs:local_authority_id": "00010/0006/0/000", "fhrs:rating": "5", "fhrs:structural": "5", "name": "The Star Tavern", "opening_hours": "Mo-Fr 11:00-23:00; Sa 12:00-23:00; Su 12:00-22:30", "operator": "Fuller's", "real_ale": "yes", "source:addr": "FSA Food Hygiene Ratings Database", "source:postcode": "FSA Food Hygiene Ratings Database", "website": "https://www.star-tavern-belgravia.co.uk/", "wheelchair": "no", "wikidata": "Q17021189"}}, {"type": "node", "id": 28792394, "lat": 51.5258337, "lon": -0.0501643, "tags": {"addr:city": "London", "addr:housenumber": "131", "addr:postcode": "E2 0LJ", "addr:street": "Globe Road", "amenity": "pub", "name": "The Railway"}}, {"type": "node", "id": 28792603, "lat": 51.5201482, "lon": -0.0562856}, {"type": "node", "id": 28792627, "lat": 51.5199538, "lon": -0.0569901}, {"type": "node", "id": 29039088, "lat": 51.5212273, "lon": -0.1225308, "tags": {"addr:city": "London", "addr:postcode": "WC1N 3AR", "amenity": "pub", "name": "The Queens Larder", "smoking": "no", "source:addr:postcode": "code-point_open", "wheelchair": "limited", "wikidata": "Q26432040"}}, {"type": "node", "id": 30078475, "lat": 51.5122299, "lon": -0.0845464}, {"type": "node", "id": 30386293, "lat": 51.5600521, "lon": -0.0784346}, {"type": "node", "id": 30429954, "lat": 51.4693656, "lon": -0.2686965}, {"type": "node", "id": 30429955, "lat": 51.4695807, "lon": -0.2685504}, {"type": "node", "id": 30430063, "lat": 51.4649575, "lon": -0.2668436}, {"type": "node", "id": 30478182, "lat": 51.4711363, "lon": -0.2681346}, {"type": "node", "id": 30478187, "lat": 51.4710219, "lon": -0.2558925}, {"type": "node", "id": 30483366, "lat": 51.4195033, "lon": -0.2875532, "tags": {"addr:housenumber": "19", "addr:postcode": "KT2 6AP", "addr:street": "New Road", "amenity": "pub", "fhrs:id": "361191", "name": "The Park Tavern", "source:addr": "FHRS Open Data", "toilets": "yes", "toilets:access": "customers"}}, {"type": "node", "id": 30512931, "lat": 51.4265543, "lon": -0.2982274, "tags": {"addr:housenumber": "174", "addr:postcode": "KT2 5QG", "addr:street": "Tudor Drive", "amenity": "pub", "fhrs:id": "361386", "name": "The Cardinal", "opening_hours": "Tu-Th 17:30-10:30, Fr 12:30-23:30, Sa 12:30-11:30, Su 12:30-21:00", "source:addr": "FHRS Open Data", "toilets": "yes", "toilets:access": "customers"}}, {"type": "node", "id": 30552863, "lat": 51.4852485, "lon": -0.2861454}, {"type": "node", "id": 30585304, "lat": 51.5126423, "lon": -0.187786, "tags": {"amenity": "pub", "food": "yes", "name": "The Bayswater Arms", "operator": "Taylor Walker", "real_ale": "4 (some/most from Greene King?)"}}, {"type": "node", "id": 30591865, "lat": 51.5116511, "lon": -0.1829843}, {"type": "node", "id": 30591874, "lat": 51.5123419, "lon": -0.1783335}, {"type": "node", "id": 30592674, "lat": 51.5095361, "lon": -0.1975022, "tags": {"addr:city": "London", "addr:housenumber": "11", "addr:street": "Pembridge Road", "ale": "yes", "amenity": "pub", "floor": "0", "food": "yes", "name": "Prince Albert", "real_ale": "yes", "toilets": "yes", "toilets:access": "customers", "toilets:wheelchair": "yes", "website": "http://the-prince-albert.co.uk", "wheelchair": "yes"}}, {"type": "node", "id": 30629850, "lat": 51.417141, "lon": -0.2940029, "tags": {"addr:housenumber": "93", "addr:postcode": "KT2 6HT", "addr:street": "Elm Road", "amenity": "pub", "fhrs:id": "361285", "name": "The Wych Elm", "source:addr": "FHRS Open Data", "toilets": "yes", "toilets:access": "customers"}}, {"type": "node", "id": 30631419, "lat": 51.5821338, "lon": 0.2115723, "tags": {"amenity": "pub", "created_by": "JOSM", "name": "The New Inn"}}, {"type": "node", "id": 30669338, "lat": 51.4505854, "lon": -0.3002861, "tags": {"addr:city": "Richmond", "addr:postcode": "TW10 6UY", "addr:street": "Petersham Road", "amenity": "pub", "fhrs:id": "353379", "name": "The Rose of York", "source:addr:postcode": "FHRS", "toilets": "yes", "toilets:access": "customers"}}, {"type": "node", "id": 30793153, "lat": 51.5589274, "lon": -0.1206516, "tags": {"amenity": "pub", "indoor_seating": "yes", "name": "Flynns", "outdoor_seating": "yes", "toilets": "yes", "toilets:access": "customers"}}, {"type": "node", "id": 30794685, "lat": 51.5723538, "lon": 0.1910267, "tags": {"amenity": "pub", "name": "The Durham Arms", "toilets": "yes", "toilets:access": "customers"}}, {"type": "node", "id": 30794686, "lat": 51.5715396, "lon": 0.1877258, "tags": {"amenity": "pub", "name": "The Wheatsheaf", "toilets": "yes", "toilets:access": "customers"}}, {"type": "node", "id": 30863529, "lat": 51.451338, "lon": -0.3185756}, {"type": "node", "id": 30952175, "lat": 51.4689184, "lon": -0.2514568}, {"type": "node", "id": 30952178, "lat": 51.4687426, "lon": -0.2545609}, {"type": "node", "id": 31057757, "lat": 51.4526598, "lon": -0.3133991}, {"type": "node", "id": 31098622, "lat": 51.5865464, "lon": 0.2004147, "tags": {"amenity": "pub", "name": "The Archers"}}, {"type": "node", "id": 31098624, "lat": 51.5869264, "lon": 0.2009349, "tags": {"amenity": "pub", "name": "The Ship", "toilets": "yes", "toilets:access": "customers", "wikidata": "Q26353856"}}, {"type": "node", "id": 31247045, "lat": 51.5628777, "lon": -0.3560203, "tags": {"addr:housenumber": "320", "addr:postcode": "HA2 8EE", "addr:street": "Northolt Road", "addr:suburb": "South Harrow", "amenity": "pub", "cuisine": "irish", "facebook": "https://www.facebook.com/shawl.harrow", "fhrs:id": "657937", "indoor_seating": "yes", "name": "The Shawl", "outdoor_seating": "yes", "source:addr": "FHRS Open Data", "start_date": "1983"}}, {"type": "node", "id": 31247069, "lat": 51.5694406, "lon": -0.3464574, "tags": {"addr:city": "Harrow", "addr:housenumber": "1", "addr:postcode": "HA2 0JY", "addr:street": "Roxeth Hill", "amenity": "pub", "check_date": "2022-11-20", "contact:facebook": "https://www.facebook.com/Salt-Bar-Harrow-1577939959144871", "contact:twitter": "https://twitter.com/SaltbarHarrow", "cuisine": "indian", "fhrs:id": "816586", "food": "yes", "name": "Salt Bar", "old_name": "The Half Moon", "outdoor_seating": "yes", "smoking": "outside", "source:addr": "FHRS Open Data", "wheelchair": "no"}}, {"type": "node", "id": 31247070, "lat": 51.5703111, "lon": -0.3452491}, {"type": "node", "id": 31275782, "lat": 51.3689042, "lon": -0.1619811, "tags": {"amenity": "pub", "name": "The Lord Palmerston"}}, {"type": "node", "id": 31282203, "lat": 51.5752552, "lon": -0.3431793, "tags": {"addr:city": "Harrow", "addr:housenumber": "111", "addr:postcode": "HA1 3DF", "addr:street": "Bessborough Road", "amenity": "pub", "fhrs:id": "276344", "name": "Kingsfield Arms", "source:addr": "FHRS Open Data"}}, {"type": "node", "id": 31314237, "lat": 51.5145372, "lon": -0.1560695}, {"type": "node", "id": 31337799, "lat": 51.5492592, "lon": -0.3301454}, {"type": "node", "id": 31472797, "lat": 51.5556251, "lon": -0.316774, "tags": {"addr:city": "Wembley", "addr:housenumber": "789", "addr:postcode": "HA0 2LP", "addr:street": "Harrow Road", "amenity": "pub", "fhrs:id": "531827", "name": "The Swan", "source:addr": "FHRS Open Data"}}, {"type": "node", "id": 32554047, "lat": 51.5436014, "lon": -0.3454662}, {"type": "node", "id": 32655904, "lat": 51.5485151, "lon": -0.3298742}, {"type": "node", "id": 32921722, "lat": 51.5137876, "lon": -0.1092189, "tags": {"amenity": "pub", "name": "Serjeants"}}, {"type": "node", "id": 32921752, "lat": 51.5132255, "lon": -0.1130541}, {"type": "node", "id": 33077516, "lat": 51.470135, "lon": -0.378524, "tags": {"addr:city": "Hounslow", "addr:housenumber": "152", "addr:postcode": "TW3 3ET", "addr:street": "Bath Road", "amenity": "pub", "name": "The Windsor Castle", "opening_hours": "Mo-Th 12:00-01:00; Fr,Sa 12:00-02:00; Su 12:00-01:00", "operator": "Free House", "toilets": "yes", "toilets:access": "customers"}}, {"type": "node", "id": 33077538, "lat": 51.4715564, "lon": -0.3552644, "tags": {"amenity": "pub", "created_by": "JOSM", "name": "Duke of Cambridge"}}, {"type": "node", "id": 33077565, "lat": 51.4675133, "lon": -0.3866606, "tags": {"amenity": "pub", "created_by": "JOSM", "name": "Duke of York"}}, {"type": "node", "id": 33101954, "lat": 51.5749285, "lon": -0.0719505, "tags": {"amenity": "pub", "created_by": "Potlatch 0.4a", "name": "Turnpike House"}}, {"type": "node", "id": 33116988, "lat": 51.4778706, "lon": -0.3628656, "tags": {"amenity": "pub", "created_by": "JOSM", "name": "The Black Horse"}}, {"type": "node", "id": 33497682, "lat": 51.3654748, "lon": -0.184308, "tags": {"addr:city": "Sutton", "addr:housenumber": "32", "addr:postcode": "SM1 4QP", "addr:street": "Lower Road", "amenity": "pub", "description": "Families welcome", "fhrs:authority": "Sutton", "fhrs:id": "584427", "name": "Lord Nelson", "source": "survey;https://ratings.food.gov.uk/OpenDataFiles/FHRS529en-GB.xml", "source:addr": "FHRS Open Data", "wheelchair": "limited"}}, {"type": "node", "id": 33583650, "lat": 51.367124, "lon": -0.1641978, "tags": {"addr:housenumber": "4", "addr:postcode": "SM5 2HU", "addr:street": "North Street", "amenity": "pub", "name": "The Sun", "opening_hours": "Mo-Th 12:00-23:00; Fr-Sa 12:00-24:00; Su 12:00-22:30", "phone": "+44 20 8773 4549", "toilets": "yes", "toilets:access": "customers", "website": "http://www.thesuncarshalton.com/"}}, {"type": "node", "id": 33665778, "lat": 51.3685541, "lon": -0.1551602, "tags": {"addr:city": "Wallington", "addr:housename": "Wallington Corner", "addr:postcode": "SM6 7HX", "amenity": "pub", "fhrs:authority": "Sutton", "fhrs:id": "934406", "name": "The Rose & Crown", "source": "survey;fhrs", "survey:date": "2018-11-18"}}, {"type": "node", "id": 33665780, "lat": 51.3667578, "lon": -0.1541614}, {"type": "node", "id": 33717257, "lat": 51.3613343, "lon": -0.1502448}, {"type": "node", "id": 33760182, "lat": 51.4847039, "lon": -0.3801834, "tags": {"addr:city": "Hounslow", "addr:housenumber": "136", "addr:postcode": "TW5 0LF", "addr:street": "New Heston Road", "amenity": "pub", "name": "The Old Elm Tree", "toilets": "yes", "toilets:access": "customers"}}, {"type": "node", "id": 33760229, "lat": 51.4842491, "lon": -0.3720902, "tags": {"amenity": "pub", "created_by": "JOSM", "name": "The Old George"}}, {"type": "node", "id": 34190586, "lat": 51.4729787, "lon": -0.3376386, "tags": {"amenity": "pub", "name": "The Woodlands Tavern", "toilets": "yes", "toilets:access": "customers"}}, {"type": "node", "id": 34190679, "lat": 51.4711766, "lon": -0.3209591}, {"type": "node", "id": 34190682, "lat": 51.4689419, "lon": -0.3241118, "tags": {"amenity": "pub", "name": "The Swan Inn", "toilets": "yes", "toilets:access": "customers"}}, {"type": "node", "id": 34190721, "lat": 51.4735028, "lon": -0.3338701, "tags": {"amenity": "pub", "created_by": "JOSM", "name": "The Red Lion"}}, {"type": "node", "id": 34563543, "lat": 51.4902525, "lon": -0.2400394}, {"type": "node", "id": 34563544, "lat": 51.4901435, "lon": -0.241873}, {"type": "node", "id": 34816197, "lat": 51.4794955, "lon": -0.3202845}, {"type": "node", "id": 36138570, "lat": 51.3720919, "lon": -0.150933, "tags": {"amenity": "pub", "name": "The Grange"}}, {"type": "node", "id": 36217541, "lat": 51.561967, "lon": -0.3727312, "tags": {"addr:housenumber": "326", "addr:street": "Eastcote Lane", "amenity": "pub", "name": "The Horseshoe Bar", "toilets": "yes", "toilets:access": "customers"}}, {"type": "node", "id": 36314175, "lat": 51.3650377, "lon": -0.1623319, "tags": {"amenity": "pub", "name": "Coach & Horses", "toilets": "yes", "toilets:access": "customers"}}, {"type": "node", "id": 36487478, "lat": 51.4916527, "lon": -0.3393015, "tags": {"amenity": "pub", "beer_garden": "yes", "name": "Hare and Hounds", "toilets": "yes", "toilets:access": "customers"}}, {"type": "node", "id": 36489725, "lat": 51.4772629, "lon": -0.3633441, "tags": {"amenity": "pub", "name": "The Jolly Farmer"}}, {"type": "node", "id": 36489727, "lat": 51.4755195, "lon": -0.3601064, "tags": {"amenity": "pub", "name": "The White Bear", "toilets": "yes", "toilets:access": "customers"}}, {"type": "node", "id": 36585191, "lat": 51.3650042, "lon": -0.1625787, "tags": {"amenity": "pub", "internet_access": "wlan", "internet_access:fee": "no", "name": "The Woodman", "wikidata": "Q26318736"}}, {"type": "node", "id": 36685496, "lat": 51.4689648, "lon": -0.3288375}, {"type": "node", "id": 36685542, "lat": 51.4669866, "lon": -0.3408452, "tags": {"amenity": "pub", "name": "The Royal Oak"}}, {"type": "node", "id": 36868088, "lat": 51.3562255, "lon": -0.2162302, "tags": {"amenity": "pub", "created_by": "Potlatch 0.8c", "name": "The Railway"}}, {"type": "node", "id": 36869280, "lat": 51.3556652, "lon": -0.2222369, "tags": {"amenity": "pub", "name": "The Grumpy Mole", "toilets": "yes", "toilets:access": "customers"}}, {"type": "node", "id": 36989169, "lat": 51.3576314, "lon": -0.2157505, "tags": {"amenity": "pub", "created_by": "Potlatch 0.10", "name": "The Harrow"}}, {"type": "node", "id": 37124435, "lat": 51.3693298, "lon": -0.1658625, "tags": {"addr:city": "Carshalton", "addr:housenumber": "47", "addr:postcode": "SM5 2HG", "addr:street": "North Street", "amenity": "pub", "fhrs:authority": "Sutton", "fhrs:id": "570943", "name": "The Railway Tavern", "source": "survey;code-point open;fhrs"}}, {"type": "node", "id": 37155037, "lat": 51.369505, "lon": -0.1802281, "tags": {"addr:city": "Sutton", "addr:postcode": "SM1 3AS", "addr:street": "Erskine Road", "amenity": "pub", "fhrs:authority": "Sutton", "fhrs:id": "539497", "name": "The Butterchurn", "source": "survey;https://ratings.food.gov.uk/OpenDataFiles/FHRS529en-GB.xml", "toilets": "yes", "toilets:access": "customers"}}, {"type": "node", "id": 39601041, "lat": 51.3723143, "lon": -0.1316804, "tags": {"addr:city": "Croydon", "addr:housenumber": "27", "addr:postcode": "CR0 4TG", "addr:street": "Beddington Lane", "amenity": "pub", "name": "Harvest Home"}}, {"type": "node", "id": 39663028, "lat": 51.4155329, "lon": -0.1917749, "tags": {"addr:housenumber": "131", "addr:postcode": "SW19 1DE", "addr:street": "Merton High Street", "amenity": "pub", "fhrs:id": "764063", "name": "The Kilkenny"}}, {"type": "node", "id": 39664415, "lat": 51.4158504, "lon": -0.1864046, "tags": {"addr:city": "London", "addr:housenumber": "15", "addr:postcode": "SW19 1DF", "addr:street": "Merton High Street", "amenity": "pub", "name": "The Nelson Arms", "opening_hours": "Mo-Th 16:00-23:00; Fr 16:00-00:00; Sa 12:00-00:00; Su 12:00-22:30", "phone": "+44 20 3132 4590", "toilets": "yes", "toilets:access": "customers", "website": "http://www.nelsonarms.co.uk/"}}, {"type": "node", "id": 39741897, "lat": 51.4185272, "lon": -0.1853025, "tags": {"addr:housenumber": "78", "addr:postcode": "SW19 1BN", "addr:street": "Norman Road", "amenity": "pub", "beer_garden": "yes", "fhrs:id": "764050", "name": "The Sultan", "real_ale": "yes", "toilets": "yes", "toilets:access": "customers"}}, {"type": "node", "id": 39760209, "lat": 51.4265422, "lon": -0.2300339}, {"type": "node", "id": 39764474, "lat": 51.4257649, "lon": -0.2204298}, {"type": "node", "id": 39767022, "lat": 51.425312, "lon": -0.2178568}, {"type": "node", "id": 40175772, "lat": 51.3627599, "lon": -0.1852127, "tags": {"addr:city": "Sutton", "addr:housenumber": "53", "addr:postcode": "SM1 4LG", "addr:street": "Carshalton Road", "amenity": "pub", "fhrs:authority": "Sutton", "fhrs:id": "539499", "name": "The Nightingale", "old_name": "Jenny Lind", "source:addr": "FHRS Open Data", "source:old_name": "visit", "wheelchair": "limited"}}, {"type": "node", "id": 41027353, "lat": 51.5940913, "lon": 0.2351305, "tags": {"amenity": "pub", "name": "The King Harold"}}, {"type": "node", "id": 46714849, "lat": 51.537057, "lon": -0.0884773, "tags": {"addr:city": "London", "addr:housenumber": "55", "addr:postcode": "N1 3DS", "addr:street": "Baring Street", "amenity": "pub", "name": "The Baring Arms", "outdoor_seating": "yes", "smoking": "outside", "source": "survey", "toilets": "yes", "toilets:access": "customers"}}, {"type": "node", "id": 48202180, "lat": 51.5375265, "lon": -0.0609995}, {"type": "node", "id": 48735709, "lat": 51.5283892, "lon": -0.0709992}, {"type": "node", "id": 48751543, "lat": 51.5270992, "lon": -0.0606405}, {"type": "node", "id": 48928571, "lat": 51.5142872, "lon": -0.0531347}, {"type": "node", "id": 48928595, "lat": 51.5190934, "lon": -0.0589373, "tags": {"addr:city": "London", "addr:housenumber": "176", "addr:postcode": "E1 1BJ", "addr:street": "Whitechapel Road", "amenity": "pub", "fhrs:id": "42234", "fhrs:name": "LHT Urban Bar", "name": "Urban Bar", "source:addr": "FHRS Open Data", "toilets": "yes", "toilets:access": "customers"}}, {"type": "node", "id": 48941863, "lat": 51.5620857, "lon": -0.0572733}, {"type": "node", "id": 49300405, "lat": 51.4693662, "lon": -0.2104484, "tags": {"addr:city": "London", "addr:housenumber": "90", "addr:postcode": "SW6 3LF", "addr:street": "Fulham High Street", "amenity": "pub", "name": "The Temperance", "website": "http://www.thetemperancefulham.co.uk", "wikidata": "Q15979548", "wikipedia": "en:Temperance Billiard Hall, Fulham"}}, {"type": "node", "id": 49311908, "lat": 51.5239797, "lon": -0.1585799, "tags": {"addr:housenumber": "245-247", "addr:street": "Baker Street", "amenity": "pub", "indoor_seating": "yes", "name": "The Volunteer", "outdoor_seating": "yes", "website": "https://www.thevolunteernw1.co.uk/", "wheelchair": "limited", "wikidata": "Q26639765"}}, {"type": "node", "id": 49314952, "lat": 51.54181, "lon": -0.1359896, "tags": {"addr:city": "London", "addr:housenumber": "1", "addr:postcode": "NW1 0SS", "addr:street": "Randolph Street", "amenity": "pub", "name": "The Colonel Fawcett", "website": "http://thecolonelfawcett.co.uk/"}}, {"type": "node", "id": 49319602, "lat": 51.5218219, "lon": -0.1337724, "tags": {"amenity": "pub", "created_by": "Merkaartor 0.12", "indoor_seating": "yes", "name": "The Marlborough Arms", "outdoor_seating": "yes"}}, {"type": "node", "id": 49479269, "lat": 51.5295479, "lon": -0.0816713}, {"type": "node", "id": 49481347, "lat": 51.5376124, "lon": -0.0869409}, {"type": "node", "id": 50453554, "lat": 51.4529462, "lon": -0.3581738}, {"type": "node", "id": 50453784, "lat": 51.4557401, "lon": -0.3542958, "tags": {"addr:housenumber": "121", "addr:postcode": "TW2 7DY", "addr:street": "Kneller Road", "amenity": "pub", "fhrs:id": "353411", "name": "The White Hart Inn", "source:addr": "FHRS Open Data"}}, {"type": "node", "id": 50453906, "lat": 51.4547683, "lon": -0.3514212, "tags": {"addr:postcode": "TW2 7DT", "addr:street": "Kneller Road", "amenity": "pub", "fhrs:id": "353419", "name": "The Duke of Cambridge", "source:addr": "FHRS Open Data"}}, {"type": "node", "id": 50918706, "lat": 51.5441516, "lon": -0.0445636}, {"type": "node", "id": 50937295, "lat": 51.5452658, "lon": -0.0359488, "tags": {"entrance": "yes"}}, {"type": "node", "id": 50944782, "lat": 51.5453242, "lon": -0.0415251}, {"type": "node", "id": 52715709, "lat": 51.5487604, "lon": -0.0792072}, {"type": "node", "id": 52755412, "lat": 51.5401086, "lon": -0.0744743, "tags": {"addr:city": "London", "addr:housenumber": "260", "addr:postcode": "E8 4EP", "addr:street": "Haggerston Road", "amenity": "pub", "fhrs:id": "469457", "name": "The Duke of Wellington"}}, {"type": "node", "id": 52813523, "lat": 51.5457619, "lon": -0.0699202}, {"type": "node", "id": 53428908, "lat": 51.5450633, "lon": -0.0682093}, {"type": "node", "id": 53456920, "lat": 51.545395, "lon": -0.0633662}, {"type": "node", "id": 56279901, "lat": 51.4976168, "lon": -0.1354234}, {"type": "node", "id": 56446211, "lat": 51.3736894, "lon": -0.05418, "tags": {"addr:city": "Croydon", "addr:housenumber": "28", "addr:postcode": "CR0 8BA", "addr:street": "Wickham Road", "amenity": "pub", "fhrs:authority": "Croydon", "fhrs:id": "6564", "name": "The Crown", "toilets": "yes", "toilets:access": "customers", "wheelchair": "yes"}}, {"type": "node", "id": 57207420, "lat": 51.5463554, "lon": -0.0552809}, {"type": "node", "id": 57215756, "lat": 51.5398105, "lon": -0.0561425}, {"type": "node", "id": 57215759, "lat": 51.5387009, "lon": -0.057158}, {"type": "node", "id": 57217554, "lat": 51.5334919, "lon": -0.0574386}, {"type": "node", "id": 57730534, "lat": 51.4666594, "lon": -0.3587255, "tags": {"amenity": "pub", "name": "The Lord Clyde", "toilets": "yes", "toilets:access": "customers"}}, {"type": "node", "id": 59136547, "lat": 51.4933632, "lon": -0.1927658}, {"type": "node", "id": 59169435, "lat": 51.4895785, "lon": -0.1904313, "tags": {"addr:city": "London", "addr:housenumber": "326", "addr:postcode": "SW5 9BQ", "addr:street": "Old Brompton Road", "amenity": "pub", "name": "The Bolton", "opening_hours": "Mo-Th 12:00-23:00; Fr 12:00-00:00; Sa 10:00-00:00; Su 10:00-23:00", "operator": "O'Neills", "toilets": "yes", "toilets:access": "customers", "website": "https://www.theboltonearlscourt.co.uk/"}}, {"type": "node", "id": 59324529, "lat": 51.5681447, "lon": 0.2195076, "tags": {"amenity": "pub", "created_by": "Potlatch alpha", "name": "The Chequers"}}, {"type": "node", "id": 59651717, "lat": 51.4707517, "lon": -0.3669356, "tags": {"addr:city": "Hounslow", "addr:housenumber": "55", "addr:postcode": "TW3 1JG", "addr:street": "Lampton Road", "amenity": "pub", "fhrs:id": "491279", "name": "The Bulstrode Pub", "source:addr": "FHRS Open Data", "toilets": "yes", "toilets:access": "customers", "toilets:wheelchair": "no", "wheelchair": "limited"}}, {"type": "node", "id": 59764289, "lat": 51.5292042, "lon": -0.0837149}, {"type": "node", "id": 59933337, "lat": 51.3743818, "lon": -0.0502512, "tags": {"addr:city": "Croydon", "addr:housenumber": "158", "addr:postcode": "CR0 8BF", "addr:street": "Wickham Road", "amenity": "pub", "fhrs:authority": "Croydon", "fhrs:id": "877622", "name": "Shirley Inn"}}, {"type": "node", "id": 60131577, "lat": 51.3758915, "lon": 0.011266, "tags": {"amenity": "pub", "food": "yes", "name": "The New Inn", "toilets": "yes", "toilets:access": "customers"}}, {"type": "node", "id": 60307094, "lat": 51.3751766, "lon": -0.0836591, "tags": {"addr:city": "Croydon", "addr:housenumber": "107", "addr:postcode": "CR0 6SG", "addr:street": "Addiscombe Road", "amenity": "pub", "fhrs:authority": "Croydon", "fhrs:id": "1042866", "name": "The Cricketers", "toilets": "yes", "toilets:access": "customers", "wheelchair": "limited"}}, {"type": "node", "id": 60572439, "lat": 51.4554847, "lon": -0.4200469}, {"type": "node", "id": 60573033, "lat": 51.4654902, "lon": -0.4170041, "tags": {"addr:city": "Feltham", "addr:postcode": "TW14 0PZ", "addr:street": "Green Man Lane", "amenity": "pub", "fhrs:id": "491290", "fhrs:local_authority_id": "960", "name": "The Green Man", "wikidata": "Q26354951"}}, {"type": "node", "id": 60668912, "lat": 51.4860692, "lon": -0.3733479, "tags": {"amenity": "pub", "created_by": "JOSM", "name": "Rose and Crown"}}, {"type": "node", "id": 60724833, "lat": 51.4258528, "lon": -0.0485801}, {"type": "node", "id": 61937679, "lat": 51.6519527, "lon": -0.0814868, "tags": {"addr:city": "Enfield", "addr:housename": "The George", "addr:housenumber": "5", "addr:postcode": "EN2 6LE", "addr:street": "The Town", "amenity": "pub", "fhrs:id": "317345", "fhrs:local_authority_id": "PI/000135849", "name": "The Goose at the George", "source:addr": "FHRS Open Data", "toilets": "yes", "toilets:access": "customers"}}, {"type": "node", "id": 61947415, "lat": 51.6631766, "lon": -0.0773879, "tags": {"amenity": "pub", "name": "The Hop Poles"}}, {"type": "node", "id": 61947416, "lat": 51.6547576, "lon": -0.1077361, "tags": {"amenity": "pub", "name": "The Jolly Farmers"}}, {"type": "node", "id": 61955733, "lat": 51.6528776, "lon": -0.0865804, "tags": {"amenity": "pub", "name": "The Stag", "toilets": "yes", "toilets:access": "customers"}}, {"type": "node", "id": 61978940, "lat": 51.6594925, "lon": -0.0799229, "tags": {"amenity": "pub", "name": "Jolly Butchers"}}, {"type": "node", "id": 61987558, "lat": 51.6599599, "lon": -0.0792592, "tags": {"amenity": "pub", "name": "The Wheatsheaf"}}, {"type": "node", "id": 76660110, "lat": 51.5169424, "lon": -0.2899892, "tags": {"amenity": "pub", "name": "The Greystoke"}}, {"type": "node", "id": 78118247, "lat": 51.526357, "lon": -0.1622508}, {"type": "node", "id": 82701633, "lat": 51.5763386, "lon": -0.1437852}, {"type": "node", "id": 87355103, "lat": 51.3434073, "lon": -0.0625348, "tags": {"addr:city": "South Croydon", "addr:housenumber": "152-154", "addr:postcode": "CR2 8LB", "addr:street": "Addington Road", "amenity": "pub", "fhrs:authority": "Croydon", "fhrs:id": "640", "name": "The Sir Julian Huxley", "wikidata": "Q88917035"}}, {"type": "node", "id": 89125490, "lat": 51.4067187, "lon": -0.0318399, "tags": {"addr:city": "Beckenham", "addr:housenumber": "237", "addr:postcode": "BR3 1BN", "addr:street": "High Street", "amenity": "pub", "fhrs:id": "775322", "name": "The Bricklayers Arms", "source:addr": "FHRS Open Data"}}, {"type": "node", "id": 89125621, "lat": 51.4072473, "lon": -0.0277003, "tags": {"addr:city": "Beckenham", "addr:housenumber": "111", "addr:postcode": "BR3 1AG", "addr:street": "High Street", "amenity": "pub", "fhrs:id": "357233", "name": "Ye George Inn", "source:addr": "FHRS Open Data", "wikidata": "Q26641587"}}, {"type": "node", "id": 89125652, "lat": 51.4104781, "lon": -0.024671, "tags": {"addr:city": "Beckenham", "addr:housenumber": "9", "addr:postcode": "BR3 1AZ", "addr:street": "High Street", "amenity": "pub", "fhrs:id": "358056", "name": "O'Neils", "source:addr": "FHRS Open Data", "toilets": "yes", "toilets:access": "customers"}}, {"type": "node", "id": 90272342, "lat": 51.4738476, "lon": 0.039705, "tags": {"addr:city": "Greenwich", "addr:housenumber": "286", "addr:postcode": "SE18 4LT", "addr:street": "Shooters Hill Road", "addr:suburb": "Blackheath", "amenity": "pub", "brand": "Hungry Horse", "brand:wikidata": "Q5943510", "contact:website": "https://www.hungryhorse.co.uk/pubs/greater-london/fox-under-the-hill/", "fhrs:id": "694715", "name": "Fox Under The Hill", "opening_hours": "Mo-Fr 11:00-23:00, Sa-Su 10:00-23:00", "source:addr": "FHRS Open Data"}}, {"type": "node", "id": 91189178, "lat": 51.5575766, "lon": -0.0805619}, {"type": "node", "id": 91698872, "lat": 51.4843731, "lon": -0.3906257, "tags": {"amenity": "pub", "created_by": "JOSM", "name": "Rising Sun"}}, {"type": "node", "id": 92560386, "lat": 51.4857401, "lon": -0.4057765, "tags": {"amenity": "pub", "name": "The Jolly Gardeners"}}, {"type": "node", "id": 96003939, "lat": 51.5286273, "lon": -0.0514036}, {"type": "node", "id": 96004423, "lat": 51.5289298, "lon": -0.0521186}, {"type": "node", "id": 96083725, "lat": 51.4930282, "lon": -0.1383271}, {"type": "node", "id": 98160782, "lat": 51.5705043, "lon": -0.1476079}, {"type": "node", "id": 106227688, "lat": 51.3758911, "lon": -0.0148923, "tags": {"addr:city": "West Wickham", "addr:housenumber": "2-4", "addr:postcode": "BR4 0NJ", "addr:street": "High Street", "amenity": "pub", "name": "The Swan", "wikidata": "Q26641570"}}, {"type": "node", "id": 108035448, "lat": 51.4787002, "lon": -0.1288063, "tags": {"addr:city": "London", "addr:housenumber": "257", "addr:postcode": "SW8 2NB", "addr:street": "Wandsworth Road", "amenity": "pub", "brewery": "yes", "food": "yes", "name": "The Nott", "payment:cash": "yes", "payment:contactless": "yes", "payment:credit_cards": "yes"}}, {"type": "node", "id": 116097320, "lat": 51.5149285, "lon": -0.0778751, "tags": {"addr:city": "London", "addr:housenumber": "133", "addr:postcode": "EC3A 7BX", "addr:street": "Houndsditch", "amenity": "pub", "fhrs:id": "294939", "name": "The Alice", "website": "https://www.craft-pubs.co.uk/alicelondon", "wheelchair": "no"}}, {"type": "node", "id": 116097730, "lat": 51.5148281, "lon": -0.0781193, "tags": {"addr:city": "London", "addr:housenumber": "31", "addr:postcode": "EC3A 7DB", "addr:street": "Houndsditch", "amenity": "pub", "fhrs:id": "1105123", "name": "The Lion Houndsditch", "wheelchair": "limited"}}, {"type": "node", "id": 117265225, "lat": 51.3919758, "lon": -0.3106477}, {"type": "node", "id": 117281545, "lat": 51.3920196, "lon": -0.3067528, "tags": {"addr:city": "Surbiton", "addr:housenumber": "64/65", "addr:postcode": "KT6 4NQ", "addr:street": "Victoria Road", "amenity": "pub", "email": "7755@greeneking.co.uk", "name": "The Duke of York", "opening_hours:covid19": "closed", "phone": "+44 20 8339 9277", "website": "http://www.dukeofyork-surbiton.co.uk/"}}, {"type": "node", "id": 117282517, "lat": 51.392165, "lon": -0.3068874}, {"type": "node", "id": 128329850, "lat": 51.4935531, "lon": -0.1418267, "tags": {"amenity": "pub", "name": "The Camel", "toilets": "yes", "toilets:access": "customers"}}, {"type": "node", "id": 128330377, "lat": 51.4912952, "lon": -0.1391452}, {"type": "node", "id": 129996650, "lat": 51.4070877, "lon": 0.0116437, "tags": {"addr:city": "Bromley", "addr:housenumber": "262", "addr:postcode": "BR1 1PG", "addr:street": "High Street", "amenity": "pub", "fhrs:id": "1025899", "name": "The Swan and Mitre", "source:addr": "FHRS Open Data", "wikidata": "Q26586283"}}, {"type": "node", "id": 130220511, "lat": 51.3076722, "lon": -0.1023778, "tags": {"addr:city": "Purley", "addr:postcode": "CR8 5EU", "addr:street": "Old Lodge Lane", "addr:village": "Kenley", "amenity": "pub", "contact:website": "http://www.thewattendenarmskenley.co.uk/", "fhrs:authority": "Croydon", "fhrs:id": "293531", "name": "Wattenden Arms", "not:addr:housenumber": "5", "not:addr:postcode": "CR8 4DG", "real_ale": "yes", "source:addr": "website", "source:not:addr": "fhrs", "source:not:addr:housenumber": "5"}}, {"type": "node", "id": 130577719, "lat": 51.4869374, "lon": -0.2830003, "tags": {"amenity": "pub", "created_by": "JOSM", "name": "The Bell and Crown", "wheelchair": "limited"}}, {"type": "node", "id": 130577747, "lat": 51.4844753, "lon": -0.2783571, "tags": {"amenity": "pub", "name": "The Bull's Head", "wheelchair": "yes", "wikidata": "Q15978924"}}, {"type": "node", "id": 130577751, "lat": 51.4850265, "lon": -0.2791222, "tags": {"amenity": "pub", "name": "The City Barge"}}, {"type": "node", "id": 130730585, "lat": 51.4905364, "lon": -0.2349334}, {"type": "node", "id": 130730615, "lat": 51.4827943, "lon": -0.3091397, "tags": {"addr:housenumber": "128", "addr:postcode": "TW8 8EW", "addr:street": "Brentford High Street", "amenity": "pub", "name": "The Magpie and Crown", "website": "https://www.freewebs.com/magpieandcrown/"}}, {"type": "node", "id": 132956602, "lat": 51.4654415, "lon": -0.129292, "tags": {"amenity": "pub", "name": "The Clapham North", "toilets": "yes", "toilets:access": "customers"}}, {"type": "node", "id": 132960560, "lat": 51.4687716, "lon": -0.1270502, "tags": {"addr:housenumber": "348", "addr:street": "Clapham Road", "amenity": "pub", "name": "The Phoenix", "toilets": "yes", "toilets:access": "customers"}}, {"type": "node", "id": 134900011, "lat": 51.3825845, "lon": -0.3009294, "tags": {"addr:housenumber": "2", "addr:postcode": "KT6 5BH", "addr:street": "Hook Road", "amenity": "pub", "check_date": "2023-04-01", "fhrs:id": "552941", "microbrewery": "no", "name": "The Maypole", "outdoor_seating": "yes", "payment:mastercard": "yes", "payment:visa": "yes", "source:addr": "FHRS Open Data"}}, {"type": "node", "id": 135787210, "lat": 51.5189744, "lon": -0.1413392}, {"type": "node", "id": 138122125, "lat": 51.5577347, "lon": 0.2762029, "tags": {"amenity": "pub", "name": "Thatched House"}}, {"type": "node", "id": 138122193, "lat": 51.5577823, "lon": 0.2730061, "tags": {"amenity": "pub", "name": "Jobbers Rest", "wheelchair": "yes"}}, {"type": "node", "id": 140614391, "lat": 51.5032998, "lon": -0.2243109}, {"type": "node", "id": 140614668, "lat": 51.50523, "lon": -0.2244913}, {"type": "node", "id": 142435502, "lat": 51.5229869, "lon": -0.0552609, "tags": {"addr:city": "London", "addr:housenumber": "135", "addr:postcode": "E1 5RN", "addr:street": "Cambridge Heath Road", "amenity": "pub", "fhrs:id": "49812", "food": "yes", "name": "Carpenter's Arms", "toilets": "yes", "toilets:access": "customers"}}, {"type": "node", "id": 148756771, "lat": 51.5227699, "lon": -0.046964}, {"type": "node", "id": 148782410, "lat": 51.4889866, "lon": -0.1467405, "tags": {"addr:city": "London", "addr:housenumber": "1a", "addr:postcode": "SW1V 4LD", "addr:street": "Sutherland Street", "amenity": "pub", "fhrs:id": "1048553", "name": "The White Ferry", "wikidata": "Q27081607"}}, {"type": "node", "id": 150609647, "lat": 51.4337416, "lon": -0.0424685, "tags": {"addr:city": "London", "addr:housenumber": "52", "addr:postcode": "SE23 2QL", "addr:street": "Perry Rise", "amenity": "pub", "fhrs:id": "1034882", "name": "Prince Of Wales", "source:addr": "FHRS Open Data"}}, {"type": "node", "id": 151023943, "lat": 51.4900528, "lon": -0.4352889, "tags": {"amenity": "pub", "indoor_seating": "yes", "name": "The White Hart", "operator": "Fullers", "outdoor_seating": "yes", "toilets": "yes", "toilets:access": "customers", "wikidata": "Q26354690"}}, {"type": "node", "id": 153620231, "lat": 51.3618835, "lon": -0.1932923, "tags": {"addr:housenumber": "5-9", "addr:postcode": "SM1 1DZ", "addr:street": "Hill Road", "amenity": "pub", "fhrs:id": "20823", "name": "The Moon on the Hill", "source:addr": "FHRS Open Data", "wikidata": "Q88917038"}}, {"type": "node", "id": 160548974, "lat": 51.5278869, "lon": -0.0309851, "tags": {"addr:city": "London", "addr:housenumber": "43", "addr:postcode": "E3 5AA", "addr:street": "Morgan Street", "amenity": "pub", "fhrs:id": "149505", "food": "yes", "name": "The Morgan Arms", "old_name": "Playwrights", "opening_hours": "Mo-Th 12:00-23:00; Fr-Sa 12:00-24:00; Su 12:00-22:30", "real_ale": "yes", "toilets": "yes", "toilets:access": "customers", "website": "http://www.morganarmsbow.com/"}}, {"type": "node", "id": 166585070, "lat": 51.4823245, "lon": -0.3111608, "tags": {"amenity": "pub", "name": "Six Bells", "toilets": "yes", "toilets:access": "customers"}}, {"type": "node", "id": 166585098, "lat": 51.4835627, "lon": -0.3062392, "tags": {"entrance": "yes"}}, {"type": "node", "id": 166967411, "lat": 51.5425434, "lon": -0.1548897, "tags": {"amenity": "pub", "name": "The Pembroke Castle"}}, {"type": "node", "id": 169140424, "lat": 51.4500913, "lon": -0.1743309, "tags": {"amenity": "pub", "name": "The County Arms", "operator": "Youngs", "toilets": "yes", "toilets:access": "customers"}}, {"type": "node", "id": 169140546, "lat": 51.4461541, "lon": -0.1654356, "tags": {"addr:housenumber": "1", "addr:postcode": "SW17 7EG", "addr:street": "Bellevue Road", "amenity": "pub", "fhrs:id": "297553", "name": "The Hope", "source:addr": "FHRS Open Data", "toilets": "yes", "toilets:access": "customers"}}, {"type": "node", "id": 169384510, "lat": 51.4986377, "lon": -0.139521, "tags": {"addr:city": "London", "addr:housenumber": "25", "addr:postcode": "SW1E 6PR", "addr:street": "Wilfred Street", "amenity": "pub", "fhrs:id": "428047", "name": "The Colonies", "source:addr": "FHRS Open Data"}}, {"type": "node", "id": 169440015, "lat": 51.4985497, "lon": -0.1402518, "tags": {"addr:city": "London", "addr:housenumber": "39-41", "addr:postcode": "SW1E 5HN", "addr:street": "Palace Street", "amenity": "pub", "fhrs:id": "428051", "name": "Cask & Glass", "source:addr": "FHRS Open Data", "toilets": "yes", "toilets:access": "customers"}}, {"type": "node", "id": 169447694, "lat": 51.4966341, "lon": -0.1425701}, {"type": "node", "id": 173393132, "lat": 51.5228463, "lon": -0.2014599}, {"type": "node", "id": 173393189, "lat": 51.5154507, "lon": -0.1974618}, {"type": "node", "id": 173456911, "lat": 51.4777029, "lon": -0.4050335, "tags": {"amenity": "pub", "name": "The Jolly Waggoners"}}, {"type": "node", "id": 175684023, "lat": 51.5460243, "lon": -0.1019468, "tags": {"amenity": "pub", "indoor_seating": "yes", "name": "Hen and Chickens theatre & bar", "outdoor_seating": "yes", "wikidata": "Q5712940", "wikipedia": "en:Hen and Chickens Theatre"}}, {"type": "node", "id": 178448909, "lat": 51.4362614, "lon": -0.0346656, "tags": {"amenity": "pub", "check_date": "2022-11-20", "created_by": "Potlatch 0.9a", "cuisine": "british", "diet:vegan": "yes", "diet:vegetarian": "yes", "food": "yes", "level": "0", "name": "The Perry Hill", "outdoor_seating": "yes", "payment:credit_cards": "yes", "payment:debit_cards": "yes", "payment:mastercard": "yes", "payment:visa": "yes", "smoking": "outside", "source": "survey"}}, {"type": "node", "id": 179852302, "lat": 51.5126644, "lon": -0.0402174}, {"type": "node", "id": 186847699, "lat": 51.4369198, "lon": -0.0883472}, {"type": "node", "id": 192399971, "lat": 51.5509523, "lon": -0.1405102}, {"type": "node", "id": 192399976, "lat": 51.5529728, "lon": -0.1396355, "tags": {"addr:housenumber": "51", "addr:street": "Leverton Street", "amenity": "pub", "name": "The Pineapple", "outdoor_seating": "yes", "real_ale": "3 or 4 beers", "wheelchair": "no", "wikidata": "Q17361862", "wikipedia": "en:The Pineapple, Kentish Town"}}, {"type": "node", "id": 192399980, "lat": 51.5503272, "lon": -0.1328922, "tags": {"addr:city": "London Borough of Camden", "addr:housenumber": "71-73", "addr:postcode": "NW5 2SG", "addr:street": "Torriano Avenue", "amenity": "pub", "name": "The Rose & Crown", "website": "http://www.roseandcrownkentishtown.com", "wheelchair": "limited"}}, {"type": "node", "id": 192399984, "lat": 51.5471707, "lon": -0.1294282, "tags": {"addr:city": "London", "addr:housenumber": "51", "addr:postcode": "NW1 9BH", "addr:street": "Camden Park Road", "amenity": "pub", "email": "info@thelordstanley.com", "name": "Lord Stanley", "outdoor_seating": "yes", "phone": "+44 20 7284 3266", "toilets": "yes", "toilets:access": "customers", "website": "https://www.thelordstanley.com", "wheelchair": "limited"}}, {"type": "node", "id": 192402868, "lat": 51.5594225, "lon": -0.1404069}, {"type": "node", "id": 194249790, "lat": 51.4242687, "lon": -0.1420041, "tags": {"addr:housenumber": "118", "addr:postcode": "SW16 6NR", "addr:street": "Mitcham Lane", "amenity": "pub", "fhrs:id": "297078", "name": "The Furzedown", "source:addr": "FHRS Open Data", "toilets": "yes", "toilets:access": "customers"}}, {"type": "node", "id": 203121941, "lat": 51.5699975, "lon": -0.1509315}, {"type": "node", "id": 203646313, "lat": 51.5138121, "lon": -0.038887}, {"type": "node", "id": 203646626, "lat": 51.5135502, "lon": -0.0398827}, {"type": "node", "id": 203665429, "lat": 51.5141337, "lon": -0.0366195}, {"type": "node", "id": 205551222, "lat": 51.413085, "lon": -0.3619498}, {"type": "node", "id": 206144673, "lat": 51.4151413, "lon": -0.3668809, "tags": {"addr:housenumber": "88", "addr:postcode": "TW12 2AX", "addr:street": "Station Road", "amenity": "pub", "fhrs:id": "353322", "name": "The World's End", "source:addr": "FHRS Open Data"}}, {"type": "node", "id": 206144923, "lat": 51.4160066, "lon": -0.3699447}, {"type": "node", "id": 206180988, "lat": 51.5283527, "lon": -0.1738724}, {"type": "node", "id": 206186802, "lat": 51.4822827, "lon": -0.3125615, "tags": {"amenity": "pub", "fixme": "Does this still exist? Not on 2019 street level imagery. Survey needed.", "name": "O'Briens"}}, {"type": "node", "id": 206348091, "lat": 51.3675107, "lon": -0.1321916, "tags": {"addr:city": "Croydon", "addr:parentstreet": "Plough Lane", "addr:postcode": "CR0 4QR", "addr:street": "The Broadway", "addr:village": "Beddington", "amenity": "pub", "brewery": "Charles Wells", "fhrs:authority": "Croydon", "fhrs:id": "570886", "name": "The Plough", "not:addr:street": "Croydon Road", "operator": "Young & Co", "source:addr": "fhrs/royal mail postcode finder", "source:not:addr": "website", "toilets": "yes", "toilets:access": "customers", "website": "https://www.youngs.co.uk/pub-detail.asp?PubID=437"}}, {"type": "node", "id": 211260547, "lat": 51.5816235, "lon": -0.3378121, "tags": {"addr:housenumber": "86", "addr:postcode": "HA1 1JP", "addr:street": "St Anns Road", "ale": "no", "amenity": "pub", "brand": "Greene King", "brand:wikidata": "Q5564162", "brand:wikipedia": "en:Greene King", "fhrs:id": "276908", "food": "yes", "indoor_seating": "yes", "name": "Royal Oak", "outdoor_seating": "yes", "source:addr": "FHRS Open Data", "source:name": "survey", "survey:date": "2013-10-04", "website": "https://www.greeneking-pubs.co.uk/pubs/middlesex/royal-oak/", "wheelchair": "yes"}}, {"type": "node", "id": 213434818, "lat": 51.4545108, "lon": -0.4254729}, {"type": "node", "id": 215164323, "lat": 51.6044225, "lon": -0.3274506, "tags": {"amenity": "pub", "brand": "Ember Inns", "diet:vegan": "yes", "diet:vegetarian": "yes", "food": "yes", "indoor_seating": "yes", "name": "Duck in the Pond", "outdoor_seating": "yes"}}, {"type": "node", "id": 224091435, "lat": 51.4654822, "lon": 0.0090205}, {"type": "node", "id": 224091483, "lat": 51.4665816, "lon": 0.0070441}, {"type": "node", "id": 224091518, "lat": 51.4693405, "lon": 0.0102565}, {"type": "node", "id": 224146236, "lat": 51.472899, "lon": -0.0151598, "tags": {"addr:city": "London", "addr:housenumber": "2", "addr:postcode": "SE10 8DE", "addr:street": "Blackheath Hill", "air_conditioning": "yes", "amenity": "pub", "check_date": "2023-04-09", "contact:facebook": "georgedragongreenwich", "contact:instagram": "georgeanddragongreenwich", "contact:twitter": "GeorgeGreenwich", "email": "info@georgedragon.com", "lgbtq": "primary", "name": "The George & Dragon", "opening_hours": "Th 18:00-26:00; Fr-Sa 18:00-28:00; Su 16:00-26:00", "phone": "+44 20 8691 3764", "toilets": "yes", "toilets:access": "customers", "website": "https://georgedragon.com/"}}, {"type": "node", "id": 224146351, "lat": 51.4743729, "lon": -0.0148101}, {"type": "node", "id": 232336969, "lat": 51.4566505, "lon": -0.1921518}, {"type": "node", "id": 232336975, "lat": 51.5132212, "lon": -0.1366194}, {"type": "node", "id": 232337015, "lat": 51.4906972, "lon": -0.1833309, "tags": {"entrance": "yes", "source": "photograph"}}, {"type": "node", "id": 240624074, "lat": 51.5943364, "lon": -0.3807397, "tags": {"amenity": "pub", "name": "Queen's Head", "wikidata": "Q21008691"}}, {"type": "node", "id": 241473415, "lat": 51.4093122, "lon": -0.3064476, "tags": {"addr:housenumber": "3", "addr:postcode": "KT1 1JT", "addr:street": "Market Place", "amenity": "pub", "fhrs:id": "361522", "name": "The Druids Head", "source:addr": "FHRS Open Data", "toilets": "yes", "toilets:access": "customers", "wikidata": "Q16707728"}}, {"type": "node", "id": 242925119, "lat": 51.5042436, "lon": -0.3433342, "tags": {"amenity": "pub", "beer_garden": "yes", "diet:vegan": "yes", "diet:vegetarian": "yes", "internet_access": "wlan", "internet_access:fee": "no", "name": "The Fox", "outdoor_seating": "yes", "real_ale": "yes", "toilets": "yes", "toilets:access": "customers", "wikidata": "Q16891401", "wikipedia": "en:The Fox Inn, Hanwell"}}, {"type": "node", "id": 242925249, "lat": 51.5067265, "lon": -0.3276291, "tags": {"amenity": "pub", "beer_garden": "yes", "name": "The Grosvenor", "outdoor_seating": "yes"}}, {"type": "node", "id": 242938605, "lat": 51.5071386, "lon": -0.3395948, "tags": {"addr:city": "London", "addr:housenumber": "13", "addr:postcode": "W7 3TX", "addr:street": "Lower Boston Road", "amenity": "pub", "beer_garden": "yes", "description": "Pub and pizza restaurant", "fhrs:id": "954707", "name": "The Green W7", "opening_hours": "Su-We 09:00-23:00; Th-Sa 11:00-00:00", "outdoor_seating": "yes", "smoking": "outside", "toilets": "yes", "toilets:access": "customers", "website": "https://www.thegreenw7.com/"}}, {"type": "node", "id": 243509077, "lat": 51.5294799, "lon": -0.0693116}, {"type": "node", "id": 243704289, "lat": 51.4783682, "lon": -0.0115397}, {"type": "node", "id": 243707561, "lat": 51.4794939, "lon": -0.0078754}, {"type": "node", "id": 243707562, "lat": 51.4794073, "lon": -0.0078012}, {"type": "node", "id": 243712168, "lat": 51.4801465, "lon": -0.0095566}, {"type": "node", "id": 243773259, "lat": 51.4827968, "lon": -0.0083952}, {"type": "node", "id": 243832547, "lat": 51.4508398, "lon": 0.0123093}, {"type": "node", "id": 244003241, "lat": 51.3806005, "lon": -0.2819693, "tags": {"addr:postcode": "KT6 7DW", "amenity": "pub", "name": "The Broadway Cafe", "toilets": "yes", "toilets:access": "customers"}}, {"type": "node", "id": 245406678, "lat": 51.5330592, "lon": -0.096991}, {"type": "node", "id": 245435428, "lat": 51.5755352, "lon": -0.1508851}, {"type": "node", "id": 245978877, "lat": 51.6524301, "lon": -0.219662}, {"type": "node", "id": 246111569, "lat": 51.4612829, "lon": -0.1382297, "tags": {"amenity": "pub", "name": "The Alexandra"}}, {"type": "node", "id": 246112013, "lat": 51.4618322, "lon": -0.1376414, "tags": {"addr:housenumber": "1", "addr:postcode": "SW4 7AA", "addr:street": "Clapham Common South Side", "amenity": "pub", "fhrs:authority": "Lambeth", "fhrs:id": "483915", "fhrs:inspectiondate": "2013-02-15", "fhrs:rating": "5", "name": "Belle Vue", "toilets": "yes", "toilets:access": "customers", "wheelchair": "limited"}}, {"type": "node", "id": 246112767, "lat": 51.4591507, "lon": -0.1348655, "tags": {"amenity": "pub", "note": "no visible name!"}}, {"type": "node", "id": 246115186, "lat": 51.454953, "lon": -0.1395127, "tags": {"addr:housenumber": "67-69", "addr:postcode": "SW4 9JW", "addr:street": "Abbeville Road", "amenity": "pub", "fhrs:authority": "Lambeth", "fhrs:id": "482925", "fhrs:inspectiondate": "2013-02-13", "fhrs:rating": "3", "name": "The Abbeville", "toilets": "yes", "toilets:access": "customers"}}, {"type": "node", "id": 246518021, "lat": 51.5060922, "lon": -0.1267947}, {"type": "node", "id": 246518042, "lat": 51.5067276, "lon": -0.1269618, "tags": {"addr:city": "London", "addr:housenumber": "15", "addr:postcode": "SW1A 2DD", "addr:street": "Craig's Court", "amenity": "pub", "fhrs:confidence_management": "5", "fhrs:hygiene": "5", "fhrs:id": "412580", "fhrs:local_authority_id": "00881/0015/0/004", "fhrs:rating": "4", "fhrs:structural": "10", "name": "Walkers of Whitehall", "postal_code": "SW1A 2DD", "source:postcode": "FSA Food Hygiene Ratings Database"}}, {"type": "node", "id": 246519847, "lat": 51.5084752, "lon": -0.1267238, "tags": {"addr:city": "London", "addr:city:fa": "\u0644\u0646\u062f\u0646", "addr:housenumber": "7", "addr:postcode": "WC2N 4JF", "addr:street": "Duncannon Street", "amenity": "pub", "contact:facebook": "https://www.facebook.com/HalfwaytoHeaven", "contact:instagram": "https://www.instagram.com/onlyathalfway/", "contact:twitter": "https://twitter.com/onlyathalfway", "email": "halfwaytoheaven.london@stonegatepubs.com", "fhrs:confidence_management": "5", "fhrs:hygiene": "5", "fhrs:id": "411373", "fhrs:local_authority_id": "00363/0008/1/000", "fhrs:rating": "5", "fhrs:structural": "5", "internet_access": "wlan", "lgbtq": "primary", "name": "Halfway II Heaven", "opening_hours": "Mo-Th 12:00-23:00; Fr, Sa 12:00-01:00; Su 12:00-20:00", "outdoor_seating": "yes", "payment:american_express": "yes", "phone": "+44 20 7484 0736", "toilets": "yes", "toilets:access": "customers", "toilets:female": "yes", "toilets:male": "yes", "toilets:unisex": "no", "toilets:wheelchair": "no", "website": "https://www.halfway2heaven.net/", "wheelchair": "limited", "wikimedia_commons": "File:Halfway II Heaven, Trafalgar Square, WC2 (3614629275).jpg"}}, {"type": "node", "id": 246522172, "lat": 51.5005273, "lon": -0.1297099}, {"type": "node", "id": 247364732, "lat": 51.3189353, "lon": -0.1505156, "tags": {"addr:city": "Coulsdon", "addr:housenumber": "320", "addr:postcode": "CR5 3BE", "addr:street": "Chipstead Valley Road", "amenity": "pub", "fhrs:authority": "Croydon", "fhrs:id": "1848", "name": "The Smuggler's Inn", "opening_hours": "Mo-Su 08:00-23:00", "outdoor_seating": "yes", "phone": "+44 1737 550 043", "source": "survey", "survey:date": "2018-09-14"}}, {"type": "node", "id": 247475195, "lat": 51.4926133, "lon": -0.1405216}, {"type": "node", "id": 247957492, "lat": 51.5060967, "lon": -0.0827957, "tags": {"addr:city": "London", "addr:postcode": "SE1 2HD", "addr:street": "Counter Street", "addr:unit": "Unit 26 Hays Galleria", "alt_name": "The Horniman at Hay's", "amenity": "pub", "contact:phone": "+44 20 7407 1991", "contact:website": "https://www.nicholsonspubs.co.uk/restaurants/london/thehornimanathayslondonbridge", "fhrs:id": "364252", "name": "The Horniman", "opening_hours": "Mo-Su 11:00-23:00; Th-Sa 11:00-23:30", "outdoor_seating": "yes", "real_cider": "no", "source:addr": "FHRS Open Data", "toilets:wheelchair": "no", "wheelchair": "limited"}}, {"type": "node", "id": 248444184, "lat": 51.5252152, "lon": -0.0900609, "tags": {"addr:city": "London", "addr:housename": "Classic House", "addr:housenumber": "174-180", "addr:postcode": "EC1V 9BP", "addr:street": "Old Street", "amenity": "pub", "fhrs:id": "416514", "name": "The William Blake", "old_name": "Litten Tree", "source": "local knowledge", "source:addr": "FHRS Open Data"}}, {"type": "node", "id": 248453431, "lat": 51.5547125, "lon": -0.1444787, "tags": {"addr:city": "London", "addr:housenumber": "86", "addr:postcode": "NW5 1PB", "addr:street": "Highgate Road", "amenity": "pub", "fhrs:id": "424369", "fhrs:local_authority_id": "2234", "name": "The Vine", "source:addr": "FHRS Open Data"}}, {"type": "node", "id": 248478388, "lat": 51.4644128, "lon": -0.3277821, "tags": {"amenity": "pub", "name": "The Victoria", "toilets": "yes", "toilets:access": "customers"}}, {"type": "node", "id": 248546654, "lat": 51.4954636, "lon": -0.0395511, "tags": {"addr:city": "London", "addr:housenumber": "6", "addr:postcode": "SE16 7PL", "addr:street": "Russell Place", "amenity": "pub", "fhrs:id": "364236", "name": "Moby Dick", "operator": "Fuller's", "source:addr": "FHRS Open Data", "toilets": "yes", "toilets:access": "customers"}}, {"type": "node", "id": 248915404, "lat": 51.4659566, "lon": -0.1364604}, {"type": "node", "id": 248921516, "lat": 51.4661242, "lon": -0.1421645, "tags": {"amenity": "pub", "created_by": "Potlatch 0.10f", "name": "Traders", "note": "Ale and Dim Sum"}}, {"type": "node", "id": 248921520, "lat": 51.4636674, "lon": -0.1413414, "tags": {"addr:housenumber": "2", "addr:postcode": "SW4 0JG", "addr:street": "The Polygon", "amenity": "pub", "fhrs:authority": "Lambeth", "fhrs:id": "484591", "fhrs:inspectiondate": "2011-11-24", "fhrs:rating": "3", "name": "The Rose and Crown"}}, {"type": "node", "id": 248921521, "lat": 51.4639147, "lon": -0.1419006, "tags": {"amenity": "pub", "name": "Prince of Wales"}}, {"type": "node", "id": 248921522, "lat": 51.4639712, "lon": -0.1409221, "tags": {"addr:housenumber": "47", "addr:postcode": "SW4 0JL", "addr:street": "Old Town", "amenity": "pub", "fhrs:authority": "Lambeth", "fhrs:id": "484384", "fhrs:inspectiondate": "2013-01-31", "fhrs:rating": "5", "name": "The Sun"}}, {"type": "node", "id": 248921524, "lat": 51.465258, "lon": -0.1410423, "tags": {"amenity": "pub", "name": "The Grafton", "toilets": "yes", "toilets:access": "customers"}}, {"type": "node", "id": 248921525, "lat": 51.4655827, "lon": -0.1410858, "tags": {"addr:housenumber": "87", "addr:postcode": "SW4 0DR", "addr:street": "Rectory Grove", "amenity": "pub", "fhrs:authority": "Lambeth", "fhrs:id": "484413", "fhrs:inspectiondate": "2011-12-16", "fhrs:rating": "4", "name": "The Calf"}}, {"type": "node", "id": 248932665, "lat": 51.4642991, "lon": -0.1353883, "tags": {"addr:housenumber": "128", "addr:postcode": "SW4 6ED", "addr:street": "Clapham Manor Street", "amenity": "pub", "brewery": "yes", "food": "yes", "name": "The Clapham Tap", "old_name": "The Manor Arms", "opening_hours": "Mo-Th 16:00-23:00; Fr 16:00-00:00; Sa 12:00-00:00; Su 12:00-23:00", "outdoor_seating": "yes", "phone": "+44 20 7498 9633", "smoking": "outside", "website": "https://the-clapham-tap.business.site/"}}, {"type": "node", "id": 248932668, "lat": 51.4639403, "lon": -0.1369873, "tags": {"addr:city": "London", "addr:housenumber": "165", "addr:postcode": "SW4 6BJ", "addr:street": "Stonhouse Street", "amenity": "pub", "fhrs:authority": "Lambeth", "fhrs:id": "484484", "fhrs:inspectiondate": "2010-08-09", "fhrs:rating": "5", "name": "The Stonhouse"}}, {"type": "node", "id": 248933565, "lat": 51.4645547, "lon": -0.1311338, "tags": {"addr:housenumber": "18", "addr:postcode": "SW4 7UR", "addr:street": "Clapham High Street", "amenity": "pub", "fhrs:authority": "Lambeth", "fhrs:id": "483935", "fhrs:inspectiondate": "2013-03-28", "fhrs:rating": "5", "name": "The Railway Tavern"}}, {"type": "node", "id": 249238300, "lat": 51.5859544, "lon": -0.0199322, "tags": {"addr:city": "London", "addr:housenumber": "184b", "addr:postcode": "E17 4QH", "addr:street": "Hoe Street", "addr:suburb": "Walthamstow", "amenity": "pub", "fhrs:id": "514006", "level": "1", "name": "The Victoria", "opening_hours": "Closed", "source:addr": "FHRS Open Data", "toilets": "yes", "toilets:access": "customers"}}, {"type": "node", "id": 249245566, "lat": 51.4362115, "lon": -0.3504727}, {"type": "node", "id": 249245567, "lat": 51.4308537, "lon": -0.3452609}, {"type": "node", "id": 249257137, "lat": 51.497219, "lon": -0.312545, "tags": {"addr:city": "London", "addr:housenumber": "297", "addr:postcode": "W5 4XB", "addr:street": "Northfield Avenue", "amenity": "pub", "beer_garden": "yes", "food": "yes", "internet_access": "wlan", "name": "The Plough", "opening_hours": "Su-Th 11:00-24:00; Fr,Sa 11:00-00:30", "operator": "Fuller's", "outdoor_seating": "yes", "smoking": "outside"}}, {"type": "node", "id": 249299234, "lat": 51.6168831, "lon": -0.0185734}, {"type": "node", "id": 249299753, "lat": 51.6350202, "lon": -0.0110616}, {"type": "node", "id": 249310455, "lat": 51.5048793, "lon": -0.0573725, "tags": {"addr:city": "London", "addr:housenumber": "97", "addr:postcode": "E1W 2RW", "addr:street": "Wapping Lane", "amenity": "pub", "fhrs:id": "76191", "name": "Dockers Inn", "opening_hours": "Mo-Th 12:00-23:00, Fr,Sa 12:00-01:30, Su 12:00-22:30", "website": "https://dockersinn.co.uk/"}}, {"type": "node", "id": 249562125, "lat": 51.4068967, "lon": -0.0174421, "tags": {"amenity": "pub", "name": "Chancery"}}, {"type": "node", "id": 249562629, "lat": 51.4067114, "lon": -0.0180915, "tags": {"addr:city": "Beckenham", "addr:housenumber": "9", "addr:postcode": "BR3 6NR", "addr:street": "Chancery Lane", "amenity": "pub", "fhrs:id": "357174", "name": "Jolly Woodman", "source:addr": "FHRS Open Data", "toilets": "yes", "toilets:access": "customers"}}, {"type": "node", "id": 249573137, "lat": 51.492147, "lon": -0.2623428}, {"type": "node", "id": 249573138, "lat": 51.4917587, "lon": -0.2622862, "tags": {"amenity": "pub", "name": "Betty"}}, {"type": "node", "id": 249672348, "lat": 51.5200974, "lon": -0.1038699}, {"type": "node", "id": 249672846, "lat": 51.5833767, "lon": -0.0191396, "tags": {"addr:city": "London", "addr:housenumber": "264", "addr:postcode": "E17 3AX", "addr:street": "Hoe Street", "addr:suburb": "Walthamstow", "amenity": "pub", "fhrs:id": "514218", "fhrs:local_authority_id": "169", "name": "The Goose", "source:addr": "FHRS Open Data"}}, {"type": "node", "id": 249672865, "lat": 51.5912043, "lon": -0.0077676, "tags": {"addr:city": "London", "addr:country": "GB", "addr:housenumber": "807-809", "addr:postcode": "E17 4JD", "addr:street": "Forest Road", "addr:suburb": "Walthamstow", "amenity": "pub", "fhrs:id": "515330", "fhrs:local_authority_id": "6324", "name": "The William Morris", "source:addr": "FHRS Open Data", "source:addr:postcode": "FHRS Open Data", "toilets": "yes", "toilets:access": "public"}}, {"type": "node", "id": 249674874, "lat": 51.6173593, "lon": -0.0277148, "tags": {"amenity": "pub", "created_by": "Potlatch 0.7b", "name": "The Hall Tavern"}}, {"type": "node", "id": 249733180, "lat": 51.4931529, "lon": -0.120497, "tags": {"addr:housenumber": "44", "addr:postcode": "SE1 7JS", "addr:street": "Lambeth High Street", "amenity": "pub", "brewery": "yes", "check_date": "2023-04-20", "fhrs:authority": "Lambeth", "fhrs:id": "484230", "fhrs:inspectiondate": "2014-01-27", "fhrs:rating": "5", "name": "The Windmill", "payment:mastercard": "yes", "payment:visa": "yes", "toilets": "yes", "toilets:access": "customers", "wheelchair": "yes"}}, {"type": "node", "id": 249786782, "lat": 51.5114253, "lon": -0.3150232, "tags": {"addr:city": "London", "addr:housenumber": "123", "addr:postcode": "W13 9AU", "addr:street": "Uxbridge Road", "addr:suburb": "West Ealing", "amenity": "pub", "fhrs:id": "1033781", "name": "Prince Arthur", "source:addr": "FHRS Open Data"}}, {"type": "node", "id": 249793689, "lat": 51.5115625, "lon": -0.3159141, "tags": {"addr:city": "London", "addr:housenumber": "94", "addr:postcode": "W13 8RA", "addr:street": "Uxbridge Road", "addr:suburb": "West Ealing", "amenity": "pub", "fhrs:id": "1033329", "name": "The Star And Anchor", "source:addr": "FHRS Open Data", "toilets": "yes", "toilets:access": "customers"}}, {"type": "node", "id": 250080453, "lat": 51.5913275, "lon": -0.2279046, "tags": {"amenity": "pub", "name": "The Greyhound"}}, {"type": "node", "id": 250080603, "lat": 51.5901278, "lon": -0.226129, "tags": {"amenity": "pub", "name": "Claddagh Ring", "toilets": "yes", "toilets:access": "customers"}}, {"type": "node", "id": 250367687, "lat": 51.5403657, "lon": -0.1355025}, {"type": "node", "id": 250747007, "lat": 51.4605376, "lon": -0.322783, "tags": {"addr:housenumber": "263", "addr:postcode": "TW1 1NJ", "addr:street": "St Margarets Road", "amenity": "pub", "fhrs:id": "354136", "name": "Ailsa Tavern", "source:addr": "FHRS Open Data"}}, {"type": "node", "id": 250766138, "lat": 51.5813474, "lon": 0.1167003, "tags": {"amenity": "pub", "created_by": "JOSM", "name": "The Hawbush"}}, {"type": "node", "id": 250832024, "lat": 51.5548991, "lon": -0.1511446}, {"type": "node", "id": 251008251, "lat": 51.6317827, "lon": -0.0018338}, {"type": "node", "id": 251385770, "lat": 51.4851696, "lon": -0.4404949, "tags": {"amenity": "pub", "created_by": "JOSM", "name": "The Pheasant", "wikidata": "Q26573583"}}, {"type": "node", "id": 251385779, "lat": 51.4857689, "lon": -0.4350514, "tags": {"amenity": "pub", "created_by": "JOSM", "name": "The Wheatsheaf"}}, {"type": "node", "id": 251526423, "lat": 51.4427243, "lon": -0.1493607, "tags": {"addr:housenumber": "77", "addr:postcode": "SW12 9HD", "addr:street": "Bedford Hill", "amenity": "pub", "fhrs:id": "297565", "name": "The Bedford", "source:addr": "FHRS Open Data", "toilets": "yes", "toilets:access": "customers", "wikidata": "Q21008638"}}, {"type": "node", "id": 251802173, "lat": 51.4903013, "lon": -0.2778605, "tags": {"amenity": "pub", "created_by": "JOSM", "name": "The Pilot"}}, {"type": "node", "id": 251811996, "lat": 51.4962711, "lon": -0.2641399, "tags": {"amenity": "pub", "name": "The Duke of Sussex", "wikidata": "Q26558796"}}, {"type": "node", "id": 251812011, "lat": 51.4980571, "lon": -0.2652074}, {"type": "node", "id": 252535146, "lat": 51.4894989, "lon": -0.2308453}, {"type": "node", "id": 252938134, "lat": 51.5383918, "lon": -0.0990837}, {"type": "node", "id": 253023936, "lat": 51.521426, "lon": -0.1520105}, {"type": "node", "id": 253103723, "lat": 51.5908564, "lon": -0.0411754}, {"type": "node", "id": 253103724, "lat": 51.5903881, "lon": -0.0411456}, {"type": "node", "id": 253103725, "lat": 51.5903692, "lon": -0.0419178}, {"type": "node", "id": 253234613, "lat": 51.4438353, "lon": -0.4109736}, {"type": "node", "id": 253396058, "lat": 51.4379454, "lon": -0.411381, "tags": {"amenity": "pub", "name": "The General Roy"}}, {"type": "node", "id": 253821972, "lat": 51.4933103, "lon": -0.4578277}, {"type": "node", "id": 253822004, "lat": 51.490188, "lon": -0.4578724, "tags": {"amenity": "pub", "name": "King William IV", "toilets": "yes", "toilets:access": "customers", "wikidata": "Q26354620"}}, {"type": "node", "id": 253822030, "lat": 51.4887505, "lon": -0.4561375, "tags": {"amenity": "pub", "name": "The Crown", "toilets": "yes", "toilets:access": "customers"}}, {"type": "node", "id": 253822036, "lat": 51.4887565, "lon": -0.4779067, "tags": {"addr:postcode": "UB7 0AJ", "addr:street": "High Street", "amenity": "pub", "name": "The Crown", "opening_hours": "Mo-Sa 12:00-23:00; Su 12:00-22:30", "phone": "+44 20 8759 1007", "toilets": "yes", "toilets:access": "customers", "wikidata": "Q26354696"}}, {"type": "node", "id": 253822037, "lat": 51.4888895, "lon": -0.4790704, "tags": {"addr:postcode": "UB7 0AQ", "addr:street": "High Street", "amenity": "pub", "name": "The Five Bells", "opening_hours": "Mo-Th 12:00-23:00; Fr-Sa 12:00-00:00; Su 12:00-22:30", "phone": "+44 20 8897 7689", "wikidata": "Q26488970"}}, {"type": "node", "id": 254338996, "lat": 51.4991222, "lon": -0.1126532, "tags": {"accommodation": "hostel", "addr:housenumber": "122", "addr:postcode": "SE1 7RW", "addr:street": "Westminster Bridge Road", "amenity": "pub", "cuisine": "american", "fhrs:authority": "Lambeth", "fhrs:id": "484704", "fhrs:inspectiondate": "2014-02-27", "fhrs:rating": "5", "name": "The Horse & Stables", "real_ale": "4", "toilets": "yes", "toilets:access": "customers", "website": "https://www.thehorseandstables.co.uk/", "wheelchair": "no"}}, {"type": "node", "id": 254345007, "lat": 51.5006531, "lon": -0.1133102}, {"type": "node", "id": 254924499, "lat": 51.5187404, "lon": -0.132015}, {"type": "node", "id": 255012045, "lat": 51.5782929, "lon": -0.1242398, "tags": {"amenity": "pub", "comedy": "yes", "description:floor": "Rough wood", "food": "yes", "name": "King's Head", "note:beer": "May vary", "real_ale": "3 beers", "venue": "comedy", "wheelchair": "no"}}, {"type": "node", "id": 255467328, "lat": 51.5152398, "lon": -0.1992676}, {"type": "node", "id": 255467418, "lat": 51.5090298, "lon": -0.1950149}, {"type": "node", "id": 255747920, "lat": 51.5147188, "lon": -0.1171826}, {"type": "node", "id": 255747926, "lat": 51.5146638, "lon": -0.1171151, "tags": {"created_by": "JOSM"}}, {"type": "node", "id": 255747928, "lat": 51.5145643, "lon": -0.1171798, "tags": {"created_by": "JOSM"}}, {"type": "node", "id": 255747944, "lat": 51.5145856, "lon": -0.1172667}, {"type": "node", "id": 255747947, "lat": 51.5146835, "lon": -0.1168023, "tags": {"addr:city": "London", "addr:postcode": "WC2A 2HF", "addr:street": "Portugal Street", "amenity": "pub", "contact:phone": "+44 20 7955 7743", "contact:website": "http://www.lse.ac.uk/intranet/LSEServices/cateringServices/restaurantsAndCafes/georgeIVPub.aspx", "level": "0;1", "loc_name": "The George", "name": "The George IV", "opening_hours": "12:00-24:00", "operator": "London School of Economics and Political Science (LSE)", "outdoor_seating": "no", "photo": "https://en.wikipedia.org/wiki/File:Lse_george_iv.jpg", "smoking": "outside", "toilets": "yes", "toilets:access": "customers", "toilets:wheelchair": "no", "wheelchair": "limited", "wheelchair:description": "Access through door on Portsmouth Street; no disabled toilet but nearby LSE library's toilet is available"}}, {"type": "node", "id": 255959341, "lat": 51.4955664, "lon": -0.2700726, "tags": {"amenity": "pub", "name": "The Bollo", "toilets": "yes", "toilets:access": "customers"}}, {"type": "node", "id": 255960379, "lat": 51.4928086, "lon": -0.2667308}, {"type": "node", "id": 256404255, "lat": 51.5609825, "lon": -0.0740121, "tags": {"addr:city": "London", "addr:country": "GB", "addr:housenumber": "145", "addr:postcode": "N16 0NY", "addr:street": "Stoke Newington High Street", "amenity": "pub", "brand": "Wetherspoon", "brand:wikidata": "Q6109362", "brand:wikipedia": "en:Wetherspoons", "contact:website": "https://www.jdwetherspoon.com/pubs/all-pubs/england/london/the-rochester-castle-stoke-newington", "fhrs:id": "469065", "food": "yes", "name": "Rochester Castle", "real_ale": "6", "source": "Local knowledge", "source:addr": "FHRS Open Data", "toilets": "yes", "toilets:access": "customers", "wheelchair": "limited", "wikidata": "Q26388410"}}, {"type": "node", "id": 256508655, "lat": 51.4957086, "lon": -0.2548368}, {"type": "node", "id": 256622051, "lat": 51.4878141, "lon": -0.310766, "tags": {"amenity": "pub", "name": "The King's Arms", "toilets": "yes", "toilets:access": "customers"}}, {"type": "node", "id": 257422550, "lat": 51.5178955, "lon": -0.1155324, "tags": {"addr:city": "London", "addr:housenumber": "283-287", "addr:postcode": "WC1V 7HP", "addr:street": "High Holborn", "amenity": "pub", "brand": "Wetherspoon", "brand:wikidata": "Q6109362", "brand:wikipedia": "en:Wetherspoons", "check_date": "2023-04-18", "fhrs:id": "424508", "food": "yes", "internet_access": "wlan", "internet_access:fee": "no", "name": "The Penderel's Oak", "phone": "+44 20 7242 5669", "postal_code": "WC1V 7HZ", "real_ale": "yes", "wikidata": "Q88973882"}}, {"type": "node", "id": 257464728, "lat": 51.4933656, "lon": -0.2433411, "tags": {"amenity": "pub", "name": "The Hart", "toilets": "yes", "toilets:access": "customers"}}, {"type": "node", "id": 257477426, "lat": 51.4986094, "lon": -0.2352824}, {"type": "node", "id": 257596041, "lat": 51.4925944, "lon": -0.2544909}, {"type": "node", "id": 257596045, "lat": 51.492427, "lon": -0.2570063}, {"type": "node", "id": 257807913, "lat": 51.4892367, "lon": -0.3020541, "tags": {"amenity": "pub", "name": "The New Inn", "toilets": "yes", "toilets:access": "customers"}}, {"type": "node", "id": 257807914, "lat": 51.4882664, "lon": -0.304571, "tags": {"amenity": "pub", "description": "Pub currently closed.", "name": "The Brook", "toilets": "yes", "toilets:access": "customers"}}, {"type": "node", "id": 257807923, "lat": 51.4870591, "lon": -0.3029644, "tags": {"amenity": "pub", "created_by": "JOSM", "name": "The Griffin"}}, {"type": "node", "id": 257937397, "lat": 51.5231854, "lon": -0.138689, "tags": {"addr:city": "London", "addr:housenumber": "72", "addr:postcode": "W1T 5DU", "addr:street": "Grafton Way", "amenity": "pub", "fhrs:id": "426441", "indoor_seating": "yes", "name": "The Grafton Arms", "outdoor_seating": "yes", "roof_terrace": "yes", "source:addr": "FHRS Open Data", "website": "https://www.graftonarms.co.uk/"}}, {"type": "node", "id": 258158775, "lat": 51.5096677, "lon": -0.1258463}, {"type": "node", "id": 258159327, "lat": 51.5116758, "lon": -0.1256947}, {"type": "node", "id": 258326867, "lat": 51.4081708, "lon": -0.28964, "tags": {"addr:postcode": "KT1 3JB", "addr:street": "Washington Road", "amenity": "pub", "fhrs:id": "653971", "name": "The Bull & Bush", "source:addr": "FHRS Open Data"}}, {"type": "node", "id": 258750121, "lat": 51.411219, "lon": -0.2091116, "tags": {"addr:city": "London", "addr:country": "GB", "addr:housenumber": "277", "addr:postcode": "SW19 3NW", "addr:street": "Kingston Road", "amenity": "pub", "contact:website": "https://leatherbottle-pub.co.uk", "fhrs:id": "958710", "name": "Leather Bottle", "opening_hours": "Mo-Th 11:00-23:00; Fr-Sa 11:00-00:00; Su 12:00-23:00", "toilets": "yes", "toilets:access": "customers"}}, {"type": "node", "id": 259102682, "lat": 51.4863995, "lon": -0.3000448, "tags": {"amenity": "pub", "disused": "yes", "name": "Royal Horse Guardsman"}}, {"type": "node", "id": 259245834, "lat": 51.5084245, "lon": -0.0734303, "tags": {"addr:city": "London", "addr:housename": "Tower Bridge House", "addr:postcode": "E1W 1AA", "addr:street": "St. Katharine's Way", "addr:unit": "1", "amenity": "pub", "fhrs:id": "99568", "indoor_seating": "yes", "name": "The Slug and Lettuce", "not:addr:postcode": "E1W 1AN", "opening_hours": "Su-We 10:00-23:00; Th-Sa 10:00+", "outdoor_seating": "yes", "smoking": "outside", "toilets": "yes", "toilets:access": "customers", "wheelchair": "yes"}}, {"type": "node", "id": 259246781, "lat": 51.5157438, "lon": -0.1026086}, {"type": "node", "id": 259247147, "lat": 51.5140192, "lon": -0.102168}, {"type": "node", "id": 259247148, "lat": 51.5141806, "lon": -0.1022136}, {"type": "node", "id": 259248888, "lat": 51.5108908, "lon": -0.0811851, "tags": {"amenity": "pub", "name": "Agenda", "wheelchair": "no"}}, {"type": "node", "id": 259253467, "lat": 51.5110721, "lon": -0.0847581, "tags": {"addr:city": "London", "addr:housenumber": "11", "addr:postcode": "EC3V 0BP", "addr:street": "Talbot Court", "amenity": "pub", "fhrs:id": "294227", "name": "The Ship", "toilets": "yes", "toilets:access": "customers"}}, {"type": "node", "id": 259774303, "lat": 51.5131349, "lon": -0.1484154, "tags": {"amenity": "pub", "name": "Running Horse", "wikidata": "Q27084619"}}, {"type": "node", "id": 259774404, "lat": 51.5124213, "lon": -0.1422011, "tags": {"addr:housenumber": "6-8", "addr:street": "Mill Street", "amenity": "pub", "name": "The Windmill", "website": "https://www.youngs.co.uk/"}}, {"type": "node", "id": 260091978, "lat": 51.5188332, "lon": -0.1006469}, {"type": "node", "id": 260243933, "lat": 51.670387, "lon": -0.0181586, "tags": {"addr:housenumber": "425", "addr:postcode": "EN3 6HR", "addr:street": "South Ordnance Road", "amenity": "pub", "name": "The Greyhound", "toilets": "yes", "toilets:access": "customers"}}, {"type": "node", "id": 260662169, "lat": 51.4880582, "lon": -0.2496368}, {"type": "node", "id": 260662170, "lat": 51.4879681, "lon": -0.249855}, {"type": "node", "id": 260662174, "lat": 51.4878221, "lon": -0.2494312}, {"type": "node", "id": 260940215, "lat": 51.4817576, "lon": -0.1257254}, {"type": "node", "id": 260982507, "lat": 51.479206, "lon": -0.142504, "tags": {"addr:housenumber": "101", "addr:postcode": "SW8 4DS", "addr:street": "Battersea Park Road", "amenity": "pub", "cuisine": "japanese", "fhrs:id": "297570", "food": "yes", "name": "The Duchess Belle", "outdoor_seating": "yes", "source:addr": "FHRS Open Data", "wheelchair": "yes"}}, {"type": "node", "id": 261000393, "lat": 51.4748429, "lon": -0.128315, "tags": {"amenity": "pub", "created_by": "Potlatch 0.9a", "name": "The Priory Arms", "opening_hours": "Mo-Fr 16:00-23:00; Sa 12:00-23:00; Su 12:00-22:30"}}, {"type": "node", "id": 261245915, "lat": 51.4713507, "lon": -0.1128611, "tags": {"addr:city": "London", "addr:housenumber": "246", "addr:postcode": "SW9 6AQ", "addr:street": "Brixton Road", "amenity": "pub", "brewery": "yes", "cuisine": "gastropub", "food": "yes", "name": "Crown & Anchor", "opening_hours": "Mo 16:30-23:00; Tu-Th 16:30-24:00; Fr 16:30-25:00; Sa 12:00 - 25:00; Su 12:00-23:00", "operator": "Conway Taverns", "payment:cash": "no", "payment:contactless": "yes", "payment:credit_cards": "yes", "payment:debit_cards": "yes", "smoking": "outside", "website": "https://crownandanchorbrixton.co.uk"}}, {"type": "node", "id": 261310647, "lat": 51.4795759, "lon": -0.1259483, "tags": {"addr:housenumber": "33", "addr:postcode": "SW8 2XA", "addr:street": "Wilcox Road", "alt_name": "Nolan's Freehouse", "amenity": "pub", "fhrs:authority": "Lambeth", "fhrs:id": "484719", "fhrs:inspectiondate": "2012-10-02", "fhrs:rating": "4", "name": "Nolan's", "toilets": "yes", "toilets:access": "customers"}}, {"type": "node", "id": 261348553, "lat": 51.4781177, "lon": -0.1257342}, {"type": "node", "id": 261348576, "lat": 51.4764537, "lon": -0.1276913, "tags": {"addr:postcode": "SW8 2HJ", "addr:street": "Hartington Road", "amenity": "pub", "fhrs:authority": "Lambeth", "fhrs:id": "484138", "fhrs:inspectiondate": "2013-09-04", "fhrs:rating": "5", "name": "The Cavendish Arms"}}, {"type": "node", "id": 261817894, "lat": 51.4874221, "lon": -0.013245}, {"type": "node", "id": 262125230, "lat": 51.4683976, "lon": -0.3245885, "tags": {"amenity": "pub", "name": "The Castle"}}, {"type": "node", "id": 262131041, "lat": 51.4703335, "lon": -0.1327455, "tags": {"amenity": "pub", "name": "Duke of York", "toilets": "yes", "toilets:access": "customers"}}, {"type": "node", "id": 262131042, "lat": 51.4708812, "lon": -0.1270337, "tags": {"addr:housenumber": "34", "addr:postcode": "SW4 6QX", "addr:street": "Jeffreys Road", "amenity": "pub", "fhrs:authority": "Lambeth", "fhrs:id": "484154", "fhrs:inspectiondate": "2009-03-25", "fhrs:rating": "5", "name": "The Clarence", "toilets": "yes", "toilets:access": "customers"}}, {"type": "node", "id": 262328689, "lat": 51.4772075, "lon": -0.1227341, "tags": {"wheelchair": "limited"}}, {"type": "node", "id": 262368938, "lat": 51.4056253, "lon": 0.013861, "tags": {"addr:city": "Bromley", "addr:housenumber": "194", "addr:postcode": "BR1 1HE", "addr:street": "High Street", "amenity": "pub", "brand": "Fuller's", "brand:wikidata": "Q5253950", "brand:wikipedia": "en:Fuller's Brewery", "fhrs:id": "357437", "name": "The Partridge", "operator": "Fuller's", "source:addr": "FHRS Open Data"}}, {"type": "node", "id": 262368993, "lat": 51.4057141, "lon": 0.0138747, "tags": {"amenity": "pub", "name": "TP's", "source": "survey", "website": "http://www.tpsbar.co.uk/bromley"}}, {"type": "node", "id": 262443436, "lat": 51.5620215, "lon": -0.079539, "tags": {"addr:city": "London", "addr:housenumber": "105", "addr:postcode": "N16 0UD", "addr:street": "Stoke Newington Church Street", "amenity": "pub", "fhrs:id": "736453", "name": "The Auld Shillelagh", "toilets:wheelchair": "no", "wheelchair": "limited"}}, {"type": "node", "id": 262637189, "lat": 51.5620757, "lon": -0.0806331}, {"type": "node", "id": 262637208, "lat": 51.5625095, "lon": -0.0734053}, {"type": "node", "id": 262637210, "lat": 51.5617228, "lon": -0.0735286, "tags": {"addr:city": "London", "addr:housenumber": "178", "addr:postcode": "N16 7JL", "addr:street": "Stoke Newington High Street", "amenity": "pub", "cuisine": "thai", "fhrs:id": "469801", "food": "yes", "name": "Coach & Horses", "real_ale": "3", "wikidata": "Q26647406"}}, {"type": "node", "id": 262637212, "lat": 51.5621708, "lon": -0.0737391}, {"type": "node", "id": 262656421, "lat": 51.4136306, "lon": -0.2871325},